{"version": 0.6, "generator": "Overpass API 0.7.59 e21c39fe", "osm3s": {"timestamp_osm_base": "2023-01-20T17:55:59Z", "copyright": "The data included in this document is from www.openstreetmap.org. The data is made available under ODbL."}, "elements": [{"type": "node", "id": 1408250330, "lat": 46.8752781, "lon": 19.2216785, "tags": {"amenity": "library"}}, {"type": "node", "id": 1674352739, "lat": 46.9281973, "lon": 19.583026, "tags": {"amenity": "library"}}, {"type": "node", "id": 2222213946, "lat": 46.6194567, "lon": 19.2857732, "tags": {"amenity": "library", "name": "Pet\u0151fi S\u00e1ndor V\u00e1rosi K\u00f6nyvt\u00e1r"}}, {"type": "node", "id": 2501679402, "lat": 46.9093963, "lon": 19.6911705}, {"type": "node", "id": 2501679405, "lat": 46.9095302, "lon": 19.6912873}, {"type": "node", "id": 2501679407, "lat": 46.9095749, "lon": 19.691348}, {"type": "node", "id": 2501679409, "lat": 46.9096658, "lon": 19.6915465}, {"type": "node", "id": 2501679411, "lat": 46.9096515, "lon": 19.6917169}, {"type": "node", "id": 2501679416, "lat": 46.9093978, "lon": 19.6921349}, {"type": "node", "id": 2501679417, "lat": 46.9090072, "lon": 19.6916224}, {"type": "node", "id": 2501679418, "lat": 46.9092894, "lon": 19.6911892}, {"type": "node", "id": 2501679420, "lat": 46.9095527, "lon": 19.6913178, "tags": {"entrance": "main"}}, {"type": "node", "id": 2981305087, "lat": 46.9381845, "lon": 19.4750791, "tags": {"amenity": "library", "name": "Kerekegyh\u00e1zi V\u00e1rosi K\u00f6nyvt\u00e1r"}}, {"type": "node", "id": 3084535998, "lat": 46.6950348, "lon": 19.2040405}, {"type": "node", "id": 3084535999, "lat": 46.6950124, "lon": 19.2039191}, {"type": "node", "id": 3084536000, "lat": 46.694817, "lon": 19.2039868}, {"type": "node", "id": 3084536001, "lat": 46.6948458, "lon": 19.2041176}, {"type": "node", "id": 3287330564, "lat": 46.9093903, "lon": 19.6918754}, {"type": "node", "id": 3287330565, "lat": 46.9093405, "lon": 19.6917447}, {"type": "node", "id": 3287330566, "lat": 46.9093726, "lon": 19.6916784}, {"type": "node", "id": 3287330567, "lat": 46.9094497, "lon": 19.6917882}, {"type": "node", "id": 3287330568, "lat": 46.9091878, "lon": 19.6915871}, {"type": "node", "id": 3287330569, "lat": 46.9092839, "lon": 19.6916609}, {"type": "node", "id": 3287330570, "lat": 46.9093256, "lon": 19.6915999}, {"type": "node", "id": 3287330571, "lat": 46.9092511, "lon": 19.6914934}, {"type": "node", "id": 3287330572, "lat": 46.9092551, "lon": 19.6916782}, {"type": "node", "id": 3287330573, "lat": 46.909275, "lon": 19.6916479}, {"type": "node", "id": 3287330574, "lat": 46.9093341, "lon": 19.6917363}, {"type": "node", "id": 3287330575, "lat": 46.9093186, "lon": 19.691776}, {"type": "node", "id": 3350725288, "lat": 46.9640634, "lon": 19.7274597, "tags": {"amenity": "library"}}, {"type": "node", "id": 3439444459, "lat": 46.913365, "lon": 19.677822, "tags": {"addr:city": "Kecskem\u00e9t", "addr:housenumber": "6", "addr:postcode": "6000", "addr:street": "Sz\u00e9chenyi Istv\u00e1n s\u00e9t\u00e1ny", "amenity": "library", "name": "Sz\u00e9chenyiv\u00e1rosi Fi\u00f3kk\u00f6nyvt\u00e1r", "operator": "KJMK", "source": "turistautak.hu", "source:date": "2012-10-15", "url": "http://turistautak.hu/poi.php?id=136178"}}, {"type": "node", "id": 3459945629, "lat": 46.816897, "lon": 19.758005, "tags": {"amenity": "library", "name": "Klubk\u00f6nyvt\u00e1r - (e-pont)", "source": "turistautak.hu", "source:date": "2011-06-24", "url": "http://turistautak.hu/poi.php?id=34592"}}, {"type": "node", "id": 4045318784, "lat": 46.8936109, "lon": 19.668738}, {"type": "node", "id": 4045318785, "lat": 46.8937349, "lon": 19.6690573}, {"type": "node", "id": 4045318786, "lat": 46.894201, "lon": 19.6686696}, {"type": "node", "id": 4045318787, "lat": 46.894077, "lon": 19.6683504}, {"type": "node", "id": 4425558341, "lat": 46.9137846, "lon": 19.7055056, "tags": {"amenity": "library", "name": "KJMK Hunyadiv\u00e1rosi Fi\u00f3kk\u00f6nyvt\u00e1ra"}}, {"type": "node", "id": 4579451192, "lat": 46.7627819, "lon": 19.7518448, "tags": {"amenity": "library"}}, {"type": "node", "id": 4915684333, "lat": 46.9045534, "lon": 19.6123548}, {"type": "node", "id": 4915684334, "lat": 46.9039517, "lon": 19.6106696}, {"type": "node", "id": 4915684335, "lat": 46.9049154, "lon": 19.6088652}, {"type": "node", "id": 4915684336, "lat": 46.9058474, "lon": 19.6099316}, {"type": "node", "id": 8252535462, "lat": 46.7007187, "lon": 19.6319942, "tags": {"addr:city": "Bugacpusztah\u00e1za", "addr:housenumber": "28", "addr:postcode": "6114", "addr:street": "Sz\u00e1mad\u00f3 utca", "amenity": "library", "contact:email": "konyvtar@bugacpusztahaza.hu", "contact:facebook": "https://hu-hu.facebook.com/Bugacpusztah%C3%A1za-K%C3%B6nyvt%C3%A1r-%C3%A9s-IKSZT-465242993515741/", "contact:phone": "+36 76 850 076", "contact:website": "http://bugacpusztahaza.hu/", "name": "Bugacpusztah\u00e1za K\u00f6nyvt\u00e1r \u00e9s IKSZT", "start_date": "2012"}}, {"type": "node", "id": 8319652567, "lat": 46.7427365, "lon": 19.722082, "tags": {"addr:city": "F\u00fcl\u00f6pjakab", "addr:housenumber": "1", "addr:postcode": "6116", "addr:street": "Alkotm\u00e1ny utca", "amenity": "library", "contact:email": "iksztfulopjakab@gmail.com", "contact:phone": "+36 76 587 620", "name": "Integr\u00e1lt K\u00f6z\u00f6ss\u00e9gi \u00e9s Szolg\u00e1ltat\u00f3t\u00e9r, F\u00fcl\u00f6pjakabi K\u00f6nyvt\u00e1r", "url": "https://fulopjakab.asp.lgov.hu/integralt-kozossegi-es-szolgaltatoter-fulopjakabi-konyvtar"}}, {"type": "node", "id": 8468063206, "lat": 46.8371945, "lon": 19.6236473, "tags": {"addr:city": "Helv\u00e9cia", "addr:housenumber": "24", "addr:postcode": "6034", "addr:street": "Pet\u0151fi S\u00e1ndor utca", "amenity": "library", "contact:email": "k2060@koznet.hu", "contact:phone": "+36 76 579 082", "name": "Pet\u0151fi S\u00e1ndor M\u0171vel\u0151d\u00e9si Otthon \u00e9s K\u00f6nyvt\u00e1r", "opening_hours": "Tu,Th,Fr 09:00-16:00; We 10:00-18:00; Sa 09:00-11:00", "url": "http://helvecia.hu/newpage/index.php/intezmenyek"}}, {"type": "node", "id": 8676665796, "lat": 46.8059264, "lon": 19.3520589, "tags": {"addr:city": "Izs\u00e1k", "addr:housenumber": "54", "addr:postcode": "6070", "addr:street": "Kossuth Lajos \u00fat", "amenity": "library", "contact:phone": "+36 76 374 764", "name": "Izs\u00e1ki Szily K\u00e1lm\u00e1n K\u00f6nyvt\u00e1r", "operator": "Izs\u00e1k V\u00e1ros \u00d6nkorm\u00e1nyzata"}}, {"type": "way", "id": 242713069, "nodes": [2501679402, 2501679405, 2501679420, 2501679407, 2501679409, 2501679411, 2501679416, 2501679417, 2501679418, 2501679402]}, {"type": "way", "id": 303946416, "nodes": [3084535998, 3084535999, 3084536000, 3084536001, 3084535998], "tags": {"addr:city": "Akaszt\u00f3", "addr:housenumber": "28", "addr:postcode": "6221", "addr:street": "Tub\u00e1ni utca", "amenity": "library", "building": "yes", "name": "Akaszt\u00f3i K\u00f6nyvt\u00e1r", "website": "http://www.altiskakaszto.hu/"}}, {"type": "way", "id": 321965631, "nodes": [3287330564, 3287330575, 3287330565, 3287330574, 3287330566, 3287330567, 3287330564]}, {"type": "way", "id": 321965632, "nodes": [3287330568, 3287330572, 3287330573, 3287330569, 3287330570, 3287330571, 3287330568]}, {"type": "way", "id": 402100629, "nodes": [4045318784, 4045318785, 4045318786, 4045318787, 4045318784], "tags": {"amenity": "library", "building": "yes", "name": "K\u00f6nyvt\u00e1r"}}, {"type": "way", "id": 500537600, "nodes": [4915684333, 4915684334, 4915684335, 4915684336, 4915684333], "tags": {"addr:city": "Kecskem\u00e9t", "addr:housenumber": "5/A", "addr:postcode": "6000", "addr:street": "\u00darihegy", "amenity": "library", "landuse": "industrial", "name": "FVM Sz\u0151l\u00e9szeti \u00e9s Bor\u00e1szati Kutat\u00f3 Int\u00e9zete"}}, {"type": "relation", "id": 4485861, "members": [{"type": "way", "ref": 242713069, "role": "outer"}, {"type": "way", "ref": 321965631, "role": "inner"}, {"type": "way", "ref": 321965632, "role": "inner"}], "tags": {"addr:city": "Kecskem\u00e9t", "addr:housenumber": "8", "addr:postcode": "6000", "addr:street": "Piarist\u00e1k tere", "amenity": "library", "building": "yes", "contact:phone": "+36 76 500 550", "contact:website": "http://www.bacstudastar.hu/kjmk", "name": "Katona J\u00f3zsef K\u00f6nyvt\u00e1r", "opening_hours": "Tu-Sa 10:00-19:00", "source": "http://www.bacstudastar.hu/kjmk", "type": "multipolygon", "wheelchair": "yes", "wikidata": "Q1105594", "wikipedia": "hu:B\u00e1cs-Kiskun Megyei Katona J\u00f3zsef K\u00f6nyvt\u00e1r"}}]}