{"version": 0.6, "generator": "Overpass API 0.7.59 e21c39fe", "osm3s": {"timestamp_osm_base": "2023-01-21T09:46:07Z", "copyright": "The data included in this document is from www.openstreetmap.org. The data is made available under ODbL."}, "elements": [{"type": "node", "id": 81239646, "lat": 47.5532947, "lon": 19.0465486, "tags": {"addr:city": "Budapest", "addr:housenumber": "3", "addr:postcode": "1033", "addr:street": "Mozaik utca", "air_conditioning": "yes", "amenity": "fuel", "brand": "MOL", "brand:wikidata": "Q549181", "brand:wikipedia": "hu:MOL Magyar Olaj- \u00e9s G\u00e1zipari Nyrt.", "compressed_air": "yes", "contact:facebook": "https://www.facebook.com/mol.magyarorszag/", "contact:instagram": "https://www.instagram.com/mol.magyarorszag/", "contact:website": "https://www.mol.hu", "contact:youtube": "https://www.youtube.com/user/molgrouptv", "food": "no", "fuel:GTL_diesel": "yes", "fuel:adblue": "no", "fuel:diesel": "yes", "fuel:lpg": "no", "fuel:octane_100": "yes", "fuel:octane_95": "yes", "name": "MOL", "operator": "MOL Nyrt.", "operator:addr": "1117 Budapest, Domb\u00f3v\u00e1ri \u00fat 28.", "payment:cash": "yes", "payment:contactless": "yes", "payment:maestro": "yes", "payment:mastercard": "yes", "payment:mastercard_contactless": "yes", "payment:mastercard_electronic": "yes", "payment:visa": "yes", "payment:visa_electron": "yes", "ref:HU:company": "01-10-041683", "ref:HU:vatin": "10625790-4-44", "rent:lpg_bottles": "no", "source": "website", "source:date": "2022-05-21", "truck": "no", "wheelchair": "yes"}}, {"type": "node", "id": 96928026, "lat": 47.5743242, "lon": 19.0814899, "tags": {"addr:city": "Budapest", "addr:housenumber": "77", "addr:postcode": "1044", "addr:street": "V\u00e1ci \u00fat", "air_conditioning": "yes", "amenity": "fuel", "brand": "OMV", "brand:wikidata": "Q168238", "brand:wikipedia": "en:OMV", "compressed_air": "yes", "contact:email": "info.hungary@omv.com", "contact:facebook": "https://www.facebook.com/omvmagyarorszag", "contact:fax": "+36 1 381 9899", "contact:instagram": "https://www.instagram.com/omv/", "contact:linkedin": "https://www.linkedin.com/company/omv", "contact:twitter": "omv", "contact:website": "https://www.omv.hu", "contact:youtube": "https://www.youtube.com/user/omvofficial", "fuel:GTL_diesel": "yes", "fuel:diesel": "yes", "fuel:octane_100": "yes", "fuel:octane_95": "yes", "name": "OMV", "opening_hours": "24/7", "opening_hours:covid19": "same", "operator": "OMV Hung\u00e1ria Kft.", "operator:addr": "1117 Budapest, Okt\u00f3ber huszonharmadika utca 6-10 5. emelet 5/A.", "payment:cash": "yes", "payment:contactless": "yes", "payment:maestro": "yes", "payment:mastercard": "yes", "payment:mastercard_contactless": "yes", "payment:mastercard_electronic": "yes", "payment:visa": "yes", "payment:visa_electron": "yes", "ref:HU:company": "01-09-071584", "ref:HU:vatin": "10542925-2-44", "ref:vatin": "HU10542925", "source": "website", "source:date": "2020-10-03", "wheelchair": "yes"}}, {"type": "node", "id": 97470907, "lat": 47.64135, "lon": 19.0344545, "tags": {"addr:city": "Pom\u00e1z", "addr:postcode": "2013", "addr:street": "\u00c1rp\u00e1d fejedelem \u00fatja", "air_conditioning": "yes", "amenity": "fuel", "brand": "MOL", "brand:wikidata": "Q549181", "brand:wikipedia": "hu:MOL Magyar Olaj- \u00e9s G\u00e1zipari Nyrt.", "compressed_air": "yes", "contact:facebook": "https://www.facebook.com/mol.magyarorszag/", "contact:instagram": "https://www.instagram.com/mol.magyarorszag/", "contact:website": "https://www.mol.hu", "contact:youtube": "https://www.youtube.com/user/molgrouptv", "food": "no", "fuel:GTL_diesel": "yes", "fuel:adblue": "no", "fuel:diesel": "yes", "fuel:lpg": "no", "fuel:octane_100": "yes", "fuel:octane_95": "yes", "fuel:octane_98": "yes", "name": "MOL", "operator": "MOL Nyrt.", "operator:addr": "1117 Budapest, Domb\u00f3v\u00e1ri \u00fat 28.", "payment:cash": "yes", "payment:contactless": "yes", "payment:maestro": "yes", "payment:mastercard": "yes", "payment:mastercard_contactless": "yes", "payment:mastercard_electronic": "yes", "payment:visa": "yes", "payment:visa_electron": "yes", "ref:HU:company": "01-10-041683", "ref:HU:vatin": "10625790-4-44", "rent:lpg_bottles": "yes", "shop": "yes", "source": "website", "source:date": "2022-05-21", "truck": "no"}}, {"type": "node", "id": 110342357, "lat": 47.4858366, "lon": 19.1080805}, {"type": "node", "id": 112361847, "lat": 47.5505005, "lon": 19.0433423, "tags": {"addr:city": "Budapest", "addr:housenumber": "100", "addr:postcode": "1033", "addr:street": "Szentendrei \u00fat", "air_conditioning": "yes", "amenity": "fuel", "brand": "MOL", "brand:wikidata": "Q549181", "brand:wikipedia": "hu:MOL Magyar Olaj- \u00e9s G\u00e1zipari Nyrt.", "compressed_air": "yes", "contact:facebook": "https://www.facebook.com/mol.magyarorszag/", "contact:instagram": "https://www.instagram.com/mol.magyarorszag/", "contact:website": "https://www.mol.hu", "contact:youtube": "https://www.youtube.com/user/molgrouptv", "food": "no", "fuel:GTL_diesel": "yes", "fuel:adblue": "no", "fuel:diesel": "yes", "fuel:lpg": "no", "fuel:octane_100": "yes", "fuel:octane_95": "yes", "name": "MOL", "operator": "MOL Nyrt.", "operator:addr": "1117 Budapest, Domb\u00f3v\u00e1ri \u00fat 28.", "payment:cash": "yes", "payment:contactless": "yes", "payment:maestro": "yes", "payment:mastercard": "yes", "payment:mastercard_contactless": "yes", "payment:mastercard_electronic": "yes", "payment:visa": "yes", "payment:visa_electron": "yes", "ref:HU:company": "01-10-041683", "ref:HU:vatin": "10625790-4-44", "rent:lpg_bottles": "no", "source": "website", "source:date": "2022-05-21", "truck": "no", "wheelchair": "yes"}}, {"type": "node", "id": 112365614, "lat": 47.5445865, "lon": 19.1162646, "tags": {"addr:city": "Budapest", "addr:housenumber": "14-20", "addr:postcode": "1155", "addr:street": "Alkotm\u00e1ny utca", "air_conditioning": "yes", "amenity": "fuel", "brand": "OMV", "brand:wikidata": "Q168238", "brand:wikipedia": "en:OMV", "compressed_air": "yes", "contact:email": "info.hungary@omv.com", "contact:facebook": "https://www.facebook.com/omvmagyarorszag", "contact:fax": "+36 1 381 9899", "contact:instagram": "https://www.instagram.com/omv/", "contact:linkedin": "https://www.linkedin.com/company/omv", "contact:twitter": "omv", "contact:website": "https://www.omv.hu", "contact:youtube": "https://www.youtube.com/user/omvofficial", "fuel:GTL_diesel": "yes", "fuel:diesel": "yes", "fuel:octane_100": "yes", "fuel:octane_95": "yes", "name": "OMV", "opening_hours": "Mo-Su 06:00-22:00; PH off", "opening_hours:covid19": "same", "operator": "OMV Hung\u00e1ria Kft.", "operator:addr": "1117 Budapest, Okt\u00f3ber huszonharmadika utca 6-10 5. emelet 5/A.", "payment:cash": "yes", "payment:contactless": "yes", "payment:maestro": "yes", "payment:mastercard": "yes", "payment:mastercard_contactless": "yes", "payment:mastercard_electronic": "yes", "payment:visa": "yes", "payment:visa_electron": "yes", "ref:HU:company": "01-09-071584", "ref:HU:vatin": "10542925-2-44", "ref:vatin": "HU10542925", "source": "website", "source:date": "2020-10-03"}}, {"type": "node", "id": 112377166, "lat": 47.5657356, "lon": 19.1459851, "tags": {"amenity": "fuel", "brand": "Shell", "brand:wikidata": "Q110716465", "brand:wikipedia": "en:Royal Dutch Shell", "name": "Shell", "operator": "Shell", "website": "https://www.shell.hu/"}}, {"type": "node", "id": 132822014, "lat": 47.5383785, "lon": 19.0698254, "tags": {"addr:city": "Budapest", "addr:housenumber": "95", "addr:postcode": "1139", "addr:street": "V\u00e1ci \u00fat", "air_conditioning": "yes", "amenity": "fuel", "brand": "OMV", "brand:wikidata": "Q168238", "brand:wikipedia": "en:OMV", "compressed_air": "yes", "contact:email": "info.hungary@omv.com", "contact:facebook": "https://www.facebook.com/omvmagyarorszag", "contact:fax": "+36 1 381 9899", "contact:instagram": "https://www.instagram.com/omv/", "contact:linkedin": "https://www.linkedin.com/company/omv", "contact:phone": "+36 1 499 0100", "contact:twitter": "omv", "contact:website": "https://www.omv.hu", "contact:youtube": "https://www.youtube.com/user/omvofficial", "fuel:GTL_diesel": "yes", "fuel:diesel": "yes", "fuel:octane_100": "yes", "fuel:octane_95": "yes", "name": "OMV", "opening_hours": "24/7", "opening_hours:covid19": "same", "operator": "OMV Hung\u00e1ria Kft.", "operator:addr": "1117 Budapest, Okt\u00f3ber huszonharmadika utca 6-10 5. emelet 5/A.", "payment:cash": "yes", "payment:contactless": "yes", "payment:maestro": "yes", "payment:mastercard": "yes", "payment:mastercard_contactless": "yes", "payment:mastercard_electronic": "yes", "payment:visa": "yes", "payment:visa_electron": "yes", "ref:HU:company": "01-09-071584", "ref:HU:vatin": "10542925-2-44", "ref:vatin": "HU10542925", "source": "website", "source:date": "2020-10-03", "wheelchair": "yes"}}, {"type": "node", "id": 148626957, "lat": 47.425842, "lon": 18.9674363, "tags": {"amenity": "fuel", "created_by": "Potlatch 0.5d"}}, {"type": "node", "id": 149493794, "lat": 47.4101123, "lon": 19.0220197, "tags": {"amenity": "fuel", "brand": "Shell", "brand:wikidata": "Q110716465", "brand:wikipedia": "en:Royal Dutch Shell", "check_date:opening_hours": "2021-11-11", "name": "Shell", "opening_hours": "Mo-Su 00:00-24:00", "operator": "Shell", "website": "https://www.shell.hu/", "wheelchair": "yes"}}, {"type": "node", "id": 150408327, "lat": 47.4395498, "lon": 19.0441551, "tags": {"addr:city": "Budapest", "addr:housenumber": "1", "addr:postcode": "1116", "addr:street": "Mez\u0151k\u00f6vesd \u00fat", "air_conditioning": "yes", "amenity": "fuel", "brand": "MOL", "brand:wikidata": "Q549181", "brand:wikipedia": "hu:MOL Magyar Olaj- \u00e9s G\u00e1zipari Nyrt.", "compressed_air": "yes", "contact:facebook": "https://www.facebook.com/mol.magyarorszag/", "contact:instagram": "https://www.instagram.com/mol.magyarorszag/", "contact:website": "https://www.mol.hu", "contact:youtube": "https://www.youtube.com/user/molgrouptv", "food": "yes", "fuel:GTL_diesel": "yes", "fuel:adblue": "no", "fuel:diesel": "yes", "fuel:lpg": "yes", "fuel:octane_100": "yes", "fuel:octane_95": "yes", "name": "MOL", "operator": "MOL Nyrt.", "operator:addr": "1117 Budapest, Domb\u00f3v\u00e1ri \u00fat 28.", "payment:cash": "yes", "payment:contactless": "yes", "payment:maestro": "yes", "payment:mastercard": "yes", "payment:mastercard_contactless": "yes", "payment:mastercard_electronic": "yes", "payment:visa": "yes", "payment:visa_electron": "yes", "ref:HU:company": "01-10-041683", "ref:HU:vatin": "10625790-4-44", "rent:lpg_bottles": "yes", "source": "website", "source:date": "2022-05-21", "truck": "no", "wheelchair": "yes"}}, {"type": "node", "id": 150408580, "lat": 47.4412234, "lon": 19.0459549, "tags": {"amenity": "fuel", "brand": "Lukoil", "brand:wikidata": "Q329347", "brand:wikipedia": "en:Lukoil", "email": "info.HU@eu.lukoil.com", "name": "LUKOIL", "operator": "LUKOIL Magyarorsz\u00e1g Kft.", "website": "http://www.lukoil.hu", "wheelchair": "yes"}}, {"type": "node", "id": 151288269, "lat": 47.4423205, "lon": 18.8892147, "tags": {"addr:city": "T\u00f6r\u00f6kb\u00e1lint", "addr:country": "HU", "addr:postcode": "2045", "amenity": "fuel", "brand": "Auchan", "brand:wikidata": "Q758603", "brand:wikipedia": "en:Auchan", "name": "Auchan benzink\u00fat", "operator": "Auchan"}}, {"type": "node", "id": 180680447, "lat": 47.5668786, "lon": 19.1457352, "tags": {"amenity": "fuel", "brand": "Shell", "brand:wikidata": "Q110716465", "brand:wikipedia": "en:Royal Dutch Shell", "name": "Shell", "operator": "Shell", "website": "https://www.shell.hu/"}}, {"type": "node", "id": 206346550, "lat": 47.4952337, "lon": 18.8188471, "tags": {"amenity": "fuel", "brand": "MOL", "brand:wikidata": "Q549181", "brand:wikipedia": "en:MOL (company)", "is_in": "M1-es aut\u00f3p\u00e1lya 22-es km", "name": "MOL", "operator": "MOL", "website": "https://mol.hu/"}}, {"type": "node", "id": 230042870, "lat": 47.5330136, "lon": 19.0734608, "tags": {"addr:city": "Budapest", "addr:postcode": "1139", "addr:street": "Pap K\u00e1roly utca", "air_conditioning": "yes", "amenity": "fuel", "brand": "MOL", "brand:wikidata": "Q549181", "brand:wikipedia": "hu:MOL Magyar Olaj- \u00e9s G\u00e1zipari Nyrt.", "compressed_air": "yes", "contact:facebook": "https://www.facebook.com/mol.magyarorszag/", "contact:instagram": "https://www.instagram.com/mol.magyarorszag/", "contact:website": "https://www.mol.hu", "contact:youtube": "https://www.youtube.com/user/molgrouptv", "food": "no", "fuel:GTL_diesel": "yes", "fuel:adblue": "no", "fuel:diesel": "yes", "fuel:lpg": "no", "fuel:octane_100": "yes", "fuel:octane_95": "yes", "name": "MOL", "opening_hours": "Mo-Su 06:00-22:00", "operator": "MOL Nyrt.", "operator:addr": "1117 Budapest, Domb\u00f3v\u00e1ri \u00fat 28.", "payment:cash": "yes", "payment:contactless": "yes", "payment:maestro": "yes", "payment:mastercard": "yes", "payment:mastercard_contactless": "yes", "payment:mastercard_electronic": "yes", "payment:visa": "yes", "payment:visa_electron": "yes", "ref:HU:company": "01-10-041683", "ref:HU:vatin": "10625790-4-44", "rent:lpg_bottles": "no", "source": "website", "source:date": "2022-05-21", "truck": "no", "wheelchair": "yes"}}, {"type": "node", "id": 257085123, "lat": 47.5850023, "lon": 18.9984218, "tags": {"addr:city": "\u00dcr\u00f6m", "addr:housenumber": "2", "addr:postcode": "2096", "addr:street": "B\u00e9csi \u00fat", "air_conditioning": "yes", "amenity": "fuel", "brand": "OMV", "brand:wikidata": "Q168238", "brand:wikipedia": "en:OMV", "compressed_air": "yes", "contact:email": "info.hungary@omv.com", "contact:facebook": "https://www.facebook.com/omvmagyarorszag", "contact:fax": "+36 1 381 9899", "contact:instagram": "https://www.instagram.com/omv/", "contact:linkedin": "https://www.linkedin.com/company/omv", "contact:phone": "+36 26 550 080", "contact:twitter": "omv", "contact:website": "https://www.omv.hu", "contact:youtube": "https://www.youtube.com/user/omvofficial", "fuel:1_25": "no", "fuel:1_50": "no", "fuel:GTL_diesel": "yes", "fuel:HGV_diesel": "no", "fuel:biodiesel": "no", "fuel:biogas": "no", "fuel:cng": "no", "fuel:diesel": "yes", "fuel:e10": "no", "fuel:e85": "no", "fuel:electricity": "no", "fuel:lpg": "no", "fuel:octane_100": "yes", "fuel:octane_91": "no", "fuel:octane_95": "yes", "fuel:octane_98": "yes", "name": "OMV", "opening_hours": "Mo-Su 05:00-22:00; PH off", "opening_hours:covid19": "same", "operator": "OMV Hung\u00e1ria Kft.", "operator:addr": "1117 Budapest, Okt\u00f3ber huszonharmadika utca 6-10 5. emelet 5/A.", "payment:cash": "yes", "payment:contactless": "yes", "payment:maestro": "yes", "payment:mastercard": "yes", "payment:mastercard_contactless": "yes", "payment:mastercard_electronic": "yes", "payment:visa": "yes", "payment:visa_electron": "yes", "ref:HU:company": "01-09-071584", "ref:HU:vatin": "10542925-2-44", "ref:vatin": "HU10542925", "source": "website", "source:date": "2020-10-03", "toilets:wheelchair": "no", "wheelchair": "no"}}, {"type": "node", "id": 259711760, "lat": 47.48594, "lon": 19.0937246}, {"type": "node", "id": 260598187, "lat": 47.5361202, "lon": 19.0464572, "tags": {"addr:city": "Budapest", "addr:housenumber": "103", "addr:postcode": "1036", "addr:street": "\u00c1rp\u00e1d fejedelem \u00fatja", "air_conditioning": "yes", "amenity": "fuel", "brand": "MOL", "brand:wikidata": "Q549181", "brand:wikipedia": "hu:MOL Magyar Olaj- \u00e9s G\u00e1zipari Nyrt.", "compressed_air": "yes", "contact:facebook": "https://www.facebook.com/mol.magyarorszag/", "contact:instagram": "https://www.instagram.com/mol.magyarorszag/", "contact:website": "https://www.mol.hu", "contact:youtube": "https://www.youtube.com/user/molgrouptv", "food": "yes", "fuel:GTL_diesel": "yes", "fuel:adblue": "no", "fuel:diesel": "yes", "fuel:lpg": "no", "fuel:octane_100": "yes", "fuel:octane_95": "yes", "name": "MOL", "opening_hours": "24/7", "operator": "MOL Nyrt.", "operator:addr": "1117 Budapest, Domb\u00f3v\u00e1ri \u00fat 28.", "payment:cash": "yes", "payment:contactless": "yes", "payment:maestro": "yes", "payment:mastercard": "yes", "payment:mastercard_contactless": "yes", "payment:mastercard_electronic": "yes", "payment:visa": "yes", "payment:visa_electron": "yes", "ref": "11045", "ref:HU:company": "01-10-041683", "ref:HU:vatin": "10625790-4-44", "rent:lpg_bottles": "no", "source": "website", "source:date": "2022-05-21", "truck": "no", "wheelchair": "yes"}}, {"type": "node", "id": 268800768, "lat": 47.4742831, "lon": 19.0544775}, {"type": "node", "id": 268800831, "lat": 47.4742125, "lon": 19.0533648, "tags": {"addr:city": "Budapest", "addr:housenumber": "45", "addr:postcode": "1111", "addr:street": "Irinyi J\u00f3zsef utca", "air_conditioning": "yes", "amenity": "fuel", "brand": "MOL", "brand:wikidata": "Q549181", "brand:wikipedia": "hu:MOL Magyar Olaj- \u00e9s G\u00e1zipari Nyrt.", "compressed_air": "yes", "compressed_air:fee": "no", "contact:facebook": "https://www.facebook.com/mol.magyarorszag/", "contact:instagram": "https://www.instagram.com/mol.magyarorszag/", "contact:website": "https://www.mol.hu", "contact:youtube": "https://www.youtube.com/user/molgrouptv", "food": "no", "fuel:GTL_diesel": "yes", "fuel:adblue": "no", "fuel:diesel": "yes", "fuel:lpg": "no", "fuel:octane_100": "yes", "fuel:octane_95": "yes", "name": "MOL", "opening_hours": "24/7", "operator": "MOL Nyrt.", "operator:addr": "1117 Budapest, Domb\u00f3v\u00e1ri \u00fat 28.", "payment:cash": "yes", "payment:contactless": "yes", "payment:maestro": "yes", "payment:mastercard": "yes", "payment:mastercard_contactless": "yes", "payment:mastercard_electronic": "yes", "payment:visa": "yes", "payment:visa_electron": "yes", "ref:HU:company": "01-10-041683", "ref:HU:vatin": "10625790-4-44", "rent:lpg_bottles": "no", "source": "website", "source:date": "2022-05-21", "truck": "no", "wheelchair": "limited"}}, {"type": "node", "id": 268878316, "lat": 47.4723779, "lon": 19.0343649, "tags": {"amenity": "fuel", "brand": "Shell", "brand:wikidata": "Q154950", "brand:wikipedia": "en:Royal Dutch Shell", "fuel:diesel": "yes", "fuel:octane_100": "yes", "fuel:octane_95": "yes", "fuel:octane_98": "yes", "name": "Shell", "opening_hours": "24/7", "operator": "Iv\u00e1n R\u00e9gi\u00f3 Kft.", "payment:debit_cards": "yes", "ref:HU:vatin": "14374070-2-41", "website": "https://www.shell.hu/", "wheelchair": "yes"}}, {"type": "node", "id": 282958256, "lat": 47.4945024, "lon": 18.8175708, "tags": {"addr:city": "P\u00e1ty", "addr:housenumber": "22", "addr:postcode": "2071", "addr:street": "M1 aut\u00f3p\u00e1lya", "air_conditioning": "yes", "amenity": "fuel", "brand": "MOL", "brand:wikidata": "Q549181", "brand:wikipedia": "hu:MOL Magyar Olaj- \u00e9s G\u00e1zipari Nyrt.", "compressed_air": "yes", "contact:facebook": "https://www.facebook.com/mol.magyarorszag/", "contact:instagram": "https://www.instagram.com/mol.magyarorszag/", "contact:website": "https://www.mol.hu", "contact:youtube": "https://www.youtube.com/user/molgrouptv", "description": "M1-es aut\u00f3p\u00e1lya 22-es kil\u00f3m\u00e9ter", "food": "yes", "fuel:GTL_diesel": "yes", "fuel:adblue": "yes", "fuel:diesel": "yes", "fuel:lpg": "no", "fuel:octane_100": "yes", "fuel:octane_95": "yes", "name": "MOL", "operator": "MOL Nyrt.", "operator:addr": "1117 Budapest, Domb\u00f3v\u00e1ri \u00fat 28.", "payment:cash": "yes", "payment:contactless": "yes", "payment:maestro": "yes", "payment:mastercard": "yes", "payment:mastercard_contactless": "yes", "payment:mastercard_electronic": "yes", "payment:visa": "yes", "payment:visa_electron": "yes", "ref:HU:company": "01-10-041683", "ref:HU:vatin": "10625790-4-44", "rent:lpg_bottles": "no", "source": "website", "source:date": "2022-05-21", "truck": "no"}}, {"type": "node", "id": 283660240, "lat": 47.4358555, "lon": 19.0841146, "tags": {"addr:city": "Budapest", "addr:housenumber": "47", "addr:postcode": "1215", "addr:street": "V\u00e9dg\u00e1t utca", "air_conditioning": "yes", "amenity": "fuel", "brand": "OMV", "brand:wikidata": "Q168238", "brand:wikipedia": "en:OMV", "compressed_air": "yes", "contact:email": "info.hungary@omv.com", "contact:facebook": "https://www.facebook.com/omvmagyarorszag", "contact:fax": "+36 1 381 9899", "contact:instagram": "https://www.instagram.com/omv/", "contact:linkedin": "https://www.linkedin.com/company/omv", "contact:twitter": "omv", "contact:website": "https://www.omv.hu", "contact:youtube": "https://www.youtube.com/user/omvofficial", "fuel:GTL_diesel": "yes", "fuel:diesel": "yes", "fuel:octane_100": "yes", "fuel:octane_95": "yes", "name": "OMV", "opening_hours": "24/7", "opening_hours:covid19": "same", "operator": "OMV Hung\u00e1ria Kft.", "operator:addr": "1117 Budapest, Okt\u00f3ber huszonharmadika utca 6-10 5. emelet 5/A.", "payment:cash": "yes", "payment:contactless": "yes", "payment:maestro": "yes", "payment:mastercard": "yes", "payment:mastercard_contactless": "yes", "payment:mastercard_electronic": "yes", "payment:visa": "yes", "payment:visa_electron": "yes", "ref:HU:company": "01-09-071584", "ref:HU:vatin": "10542925-2-44", "ref:vatin": "HU10542925", "source": "website", "source:date": "2020-10-03"}}, {"type": "node", "id": 283660449, "lat": 47.4390901, "lon": 19.1045637}, {"type": "node", "id": 283704589, "lat": 47.4609817, "lon": 19.0861822}, {"type": "node", "id": 288677097, "lat": 47.4417762, "lon": 18.9409105, "tags": {"addr:city": "T\u00f6r\u00f6kb\u00e1lint", "addr:housenumber": "3", "addr:postcode": "2045", "addr:street": "Rakt\u00e1rv\u00e1rosi \u00fat", "air_conditioning": "yes", "amenity": "fuel", "brand": "MOL", "brand:wikidata": "Q549181", "brand:wikipedia": "hu:MOL Magyar Olaj- \u00e9s G\u00e1zipari Nyrt.", "compressed_air": "yes", "contact:facebook": "https://www.facebook.com/mol.magyarorszag/", "contact:instagram": "https://www.instagram.com/mol.magyarorszag/", "contact:phone": "+36 23 332 064", "contact:website": "https://www.mol.hu", "contact:youtube": "https://www.youtube.com/user/molgrouptv", "food": "yes", "fuel:GTL_diesel": "yes", "fuel:adblue": "no", "fuel:diesel": "yes", "fuel:lpg": "no", "fuel:octane_100": "yes", "fuel:octane_95": "yes", "fuel:octane_98": "yes", "name": "MOL", "operator": "MOL Nyrt.", "operator:addr": "1117 Budapest, Domb\u00f3v\u00e1ri \u00fat 28.", "payment:cash": "yes", "payment:contactless": "yes", "payment:maestro": "yes", "payment:mastercard": "yes", "payment:mastercard_contactless": "yes", "payment:mastercard_electronic": "yes", "payment:visa": "yes", "payment:visa_electron": "yes", "ref:HU:company": "01-10-041683", "ref:HU:vatin": "10625790-4-44", "rent:lpg_bottles": "yes", "source": "website", "source:date": "2022-05-21", "truck": "no"}}, {"type": "node", "id": 315572175, "lat": 47.4606126, "lon": 18.8934025, "tags": {"addr:city": "Buda\u00f6rs", "addr:postcode": "2040", "addr:street": "Keleti utca", "air_conditioning": "yes", "amenity": "fuel", "brand": "MOL", "brand:wikidata": "Q549181", "brand:wikipedia": "hu:MOL Magyar Olaj- \u00e9s G\u00e1zipari Nyrt.", "compressed_air": "yes", "contact:facebook": "https://www.facebook.com/mol.magyarorszag/", "contact:instagram": "https://www.instagram.com/mol.magyarorszag/", "contact:website": "https://www.mol.hu", "contact:youtube": "https://www.youtube.com/user/molgrouptv", "food": "yes", "fuel:GTL_diesel": "yes", "fuel:adblue": "no", "fuel:diesel": "yes", "fuel:lpg": "yes", "fuel:octane_100": "yes", "fuel:octane_95": "yes", "fuel:octane_98": "yes", "name": "MOL", "operator": "MOL Nyrt.", "operator:addr": "1117 Budapest, Domb\u00f3v\u00e1ri \u00fat 28.", "payment:cash": "yes", "payment:contactless": "yes", "payment:maestro": "yes", "payment:mastercard": "yes", "payment:mastercard_contactless": "yes", "payment:mastercard_electronic": "yes", "payment:visa": "yes", "payment:visa_electron": "yes", "ref": "18225", "ref:HU:company": "01-10-041683", "ref:HU:vatin": "10625790-4-44", "ref:vatin": "HU10625790", "rent:lpg_bottles": "yes", "source": "website", "source:date": "2022-05-21", "truck": "no"}}, {"type": "node", "id": 339095069, "lat": 47.4944872, "lon": 19.0285027, "tags": {"addr:city": "Budapest", "addr:housenumber": "19", "addr:postcode": "1016", "addr:street": "M\u00e9sz\u00e1ros utca", "air_conditioning": "yes", "amenity": "fuel", "brand": "MOL", "brand:wikidata": "Q549181", "brand:wikipedia": "hu:MOL Magyar Olaj- \u00e9s G\u00e1zipari Nyrt.", "compressed_air": "yes", "contact:facebook": "https://www.facebook.com/mol.magyarorszag/", "contact:instagram": "https://www.instagram.com/mol.magyarorszag/", "contact:website": "https://www.mol.hu", "contact:youtube": "https://www.youtube.com/user/molgrouptv", "food": "yes", "fuel:GTL_diesel": "yes", "fuel:adblue": "no", "fuel:diesel": "yes", "fuel:lpg": "no", "fuel:octane_100": "yes", "fuel:octane_95": "yes", "name": "MOL", "operator": "MOL Nyrt.", "operator:addr": "1117 Budapest, Domb\u00f3v\u00e1ri \u00fat 28.", "payment:cash": "yes", "payment:contactless": "yes", "payment:maestro": "yes", "payment:mastercard": "yes", "payment:mastercard_contactless": "yes", "payment:mastercard_electronic": "yes", "payment:visa": "yes", "payment:visa_electron": "yes", "ref:HU:company": "01-10-041683", "ref:HU:vatin": "10625790-4-44", "rent:lpg_bottles": "no", "source": "website", "source:date": "2022-05-21", "truck": "no"}}, {"type": "node", "id": 339095523, "lat": 47.4908771, "lon": 19.0308315, "tags": {"amenity": "fuel", "brand": "Shell", "brand:wikidata": "Q154950", "brand:wikipedia": "en:Royal Dutch Shell", "name": "Shell", "operator": "Shell", "website": "https://www.shell.hu/"}}, {"type": "node", "id": 367385244, "lat": 47.5165559, "lon": 18.9988241}, {"type": "node", "id": 367385252, "lat": 47.5166524, "lon": 18.9986182}, {"type": "node", "id": 367398173, "lat": 47.5002409, "lon": 18.5972475, "tags": {"amenity": "fuel", "name": "LOMO"}}, {"type": "node", "id": 368032106, "lat": 47.7105417, "lon": 18.7428557, "tags": {"addr:city": "Dorog", "addr:conscriptionnumber": "0279/8", "addr:postcode": "2510", "air_conditioning": "yes", "amenity": "fuel", "brand": "OMV", "brand:wikidata": "Q168238", "brand:wikipedia": "en:OMV", "compressed_air": "yes", "contact:email": "info.hungary@omv.com", "contact:facebook": "https://www.facebook.com/omvmagyarorszag", "contact:fax": "+36 1 381 9899", "contact:instagram": "https://www.instagram.com/omv/", "contact:linkedin": "https://www.linkedin.com/company/omv", "contact:phone": "+36 33 599 101", "contact:twitter": "omv", "contact:website": "https://www.omv.hu", "contact:youtube": "https://www.youtube.com/user/omvofficial", "fuel:GTL_diesel": "yes", "fuel:diesel": "yes", "fuel:octane_100": "yes", "fuel:octane_95": "yes", "name": "OMV", "opening_hours": "Mo-Su 04:00-22:00; PH off", "opening_hours:covid19": "same", "operator": "OMV Hung\u00e1ria Kft.", "operator:addr": "1117 Budapest, Okt\u00f3ber huszonharmadika utca 6-10 5. emelet 5/A.", "payment:cash": "yes", "payment:contactless": "yes", "payment:maestro": "yes", "payment:mastercard": "yes", "payment:mastercard_contactless": "yes", "payment:mastercard_electronic": "yes", "payment:visa": "yes", "payment:visa_electron": "yes", "ref:HU:company": "01-09-071584", "ref:HU:vatin": "10542925-2-44", "ref:vatin": "HU10542925", "source": "website", "source:date": "2020-10-03"}}, {"type": "node", "id": 369657631, "lat": 47.4746544, "lon": 19.0248065, "tags": {"addr:city": "Budapest", "addr:housenumber": "47", "addr:postcode": "1113", "addr:street": "Nagysz\u0151l\u0151s utca", "air_conditioning": "yes", "amenity": "fuel", "brand": "MOL", "brand:wikidata": "Q549181", "brand:wikipedia": "hu:MOL Magyar Olaj- \u00e9s G\u00e1zipari Nyrt.", "compressed_air": "yes", "contact:facebook": "https://www.facebook.com/mol.magyarorszag/", "contact:instagram": "https://www.instagram.com/mol.magyarorszag/", "contact:website": "https://www.mol.hu", "contact:youtube": "https://www.youtube.com/user/molgrouptv", "food": "no", "fuel:GTL_diesel": "yes", "fuel:adblue": "no", "fuel:diesel": "yes", "fuel:lpg": "yes", "fuel:octane_100": "yes", "fuel:octane_95": "yes", "name": "MOL", "operator": "MOL Nyrt.", "operator:addr": "1117 Budapest, Domb\u00f3v\u00e1ri \u00fat 28.", "payment:cash": "yes", "payment:contactless": "yes", "payment:maestro": "yes", "payment:mastercard": "yes", "payment:mastercard_contactless": "yes", "payment:mastercard_electronic": "yes", "payment:visa": "yes", "payment:visa_electron": "yes", "ref:HU:company": "01-10-041683", "ref:HU:vatin": "10625790-4-44", "rent:lpg_bottles": "yes", "source": "website", "source:date": "2022-05-21", "truck": "no", "wheelchair": "yes"}}, {"type": "node", "id": 385477566, "lat": 47.3570522, "lon": 18.8124956, "tags": {"amenity": "fuel", "internet_access": "wlan", "name": "Orlen", "operator": "Normbenz Magyarorsz\u00e1g Kft.", "website": "https://orlen.hu/"}}, {"type": "node", "id": 411047112, "lat": 47.45267, "lon": 18.9575192}, {"type": "node", "id": 411047113, "lat": 47.4526644, "lon": 18.9572788}, {"type": "node", "id": 419243196, "lat": 47.5173051, "lon": 19.0916176}, {"type": "node", "id": 419243197, "lat": 47.5174099, "lon": 19.0914552}, {"type": "node", "id": 419243198, "lat": 47.5174484, "lon": 19.0918205}, {"type": "node", "id": 419243199, "lat": 47.5175533, "lon": 19.0916581}, {"type": "node", "id": 448022928, "lat": 47.5033801, "lon": 18.5501262, "tags": {"amenity": "fuel", "brand": "OMV", "brand:wikidata": "Q168238", "brand:wikipedia": "en:OMV", "contact:website": "http://www.omv.hu", "fuel:diesel": "yes", "fuel:octane_95": "yes", "name": "OMV", "operator": "OMV Hung\u00e1ria Kft.", "website": "http://www.omv.hu"}}, {"type": "node", "id": 448022930, "lat": 47.5031939, "lon": 18.5482959, "tags": {"addr:city": "\u00d3barok", "addr:postcode": "2063", "air_conditioning": "yes", "amenity": "fuel", "brand": "OMV", "brand:wikidata": "Q168238", "brand:wikipedia": "en:OMV", "compressed_air": "yes", "contact:email": "info.hungary@omv.com", "contact:facebook": "https://www.facebook.com/omvmagyarorszag", "contact:fax": "+36 1 381 9899", "contact:instagram": "https://www.instagram.com/omv/", "contact:linkedin": "https://www.linkedin.com/company/omv", "contact:phone": "+36 30 905 3787", "contact:twitter": "omv", "contact:website": "https://www.omv.hu", "contact:youtube": "https://www.youtube.com/user/omvofficial", "fuel:GTL_diesel": "yes", "fuel:diesel": "yes", "fuel:octane_100": "yes", "fuel:octane_95": "yes", "name": "OMV", "opening_hours": "24/7", "opening_hours:covid19": "same", "operator": "OMV Hung\u00e1ria Kft.", "operator:addr": "1117 Budapest, Okt\u00f3ber huszonharmadika utca 6-10 5. emelet 5/A.", "payment:cash": "yes", "payment:contactless": "yes", "payment:maestro": "yes", "payment:mastercard": "yes", "payment:mastercard_contactless": "yes", "payment:mastercard_electronic": "yes", "payment:visa": "yes", "payment:visa_electron": "yes", "ref:HU:company": "01-09-071584", "ref:HU:vatin": "10542925-2-44", "ref:vatin": "HU10542925", "source": "website", "source:date": "2020-10-03"}}, {"type": "node", "id": 448026966, "lat": 47.5113459, "lon": 18.7375586, "tags": {"addr:city": "Zs\u00e1mb\u00e9k", "addr:housenumber": "28", "addr:postcode": "2072", "addr:street": "M1 aut\u00f3p\u00e1lya", "amenity": "fuel", "email": "info@normbenz.hu", "fuel:GTL_diesel": "yes", "fuel:adblue": "yes", "fuel:diesel": "yes", "fuel:lpg": "yes", "fuel:octane_100": "yes", "fuel:octane_95": "yes", "name": "Orlen", "operator": "Normbenz Magyarorsz\u00e1g Kft.", "payment:dkv": "yes", "payment:mastercard": "yes", "payment:uta": "yes", "payment:visa": "yes", "truck": "yes", "website": "https://orlen.hu/"}}, {"type": "node", "id": 448026967, "lat": 47.5105351, "lon": 18.7347325, "tags": {"addr:city": "Zs\u00e1mb\u00e9k", "addr:housenumber": "28", "addr:postcode": "2072", "addr:street": "M1 aut\u00f3p\u00e1lya", "amenity": "fuel", "email": "info@normbenz.hu", "fuel:GTL_diesel": "yes", "fuel:adblue": "yes", "fuel:diesel": "yes", "fuel:lpg": "yes", "fuel:octane_100": "yes", "fuel:octane_95": "yes", "name": "Orlen", "operator": "Normbenz Magyarorsz\u00e1g Kft.", "payment:dkv": "yes", "payment:mastercard": "yes", "payment:uta": "yes", "payment:visa": "yes", "truck": "yes", "website": "https://orlen.hu/"}}, {"type": "node", "id": 464764000, "lat": 47.7640219, "lon": 19.1407883, "tags": {"addr:city": "V\u00e1c", "addr:housenumber": "1", "addr:postcode": "2600", "addr:street": "G\u00f6d\u00f6ll\u0151i \u00fat", "air_conditioning": "yes", "amenity": "fuel", "brand": "OMV", "brand:wikidata": "Q168238", "brand:wikipedia": "en:OMV", "compressed_air": "yes", "contact:email": "info.hungary@omv.com", "contact:facebook": "https://www.facebook.com/omvmagyarorszag", "contact:fax": "+36 1 381 9899", "contact:instagram": "https://www.instagram.com/omv/", "contact:linkedin": "https://www.linkedin.com/company/omv", "contact:phone": "+36 27 510 665", "contact:twitter": "omv", "contact:website": "https://www.omv.hu", "contact:youtube": "https://www.youtube.com/user/omvofficial", "fuel:GTL_diesel": "yes", "fuel:diesel": "yes", "fuel:octane_100": "yes", "fuel:octane_95": "yes", "name": "OMV", "opening_hours": "24/7", "opening_hours:covid19": "same", "operator": "OMV Hung\u00e1ria Kft.", "operator:addr": "1117 Budapest, Okt\u00f3ber huszonharmadika utca 6-10 5. emelet 5/A.", "payment:cash": "yes", "payment:contactless": "yes", "payment:maestro": "yes", "payment:mastercard": "yes", "payment:mastercard_contactless": "yes", "payment:mastercard_electronic": "yes", "payment:visa": "yes", "payment:visa_electron": "yes", "ref:HU:company": "01-09-071584", "ref:HU:vatin": "10542925-2-44", "ref:vatin": "HU10542925", "source": "website", "source:date": "2020-10-03", "wheelchair": "limited"}}, {"type": "node", "id": 490744488, "lat": 47.5958065, "lon": 18.9436834, "tags": {"amenity": "fuel", "fuel:diesel": "yes", "fuel:octane_98": "yes", "name": "Dalos", "opening_hours": "Mo-Su 06:00-22:00", "operator": "Dalos"}}, {"type": "node", "id": 491469883, "lat": 47.5969651, "lon": 18.9655757, "tags": {"amenity": "fuel", "brand": "Auchan", "name": "Auchan&IMO", "opening_hours": "Mo-Sa 07:00-21:00; Su 08:00-20:00", "payment:credit_cards": "only"}}, {"type": "node", "id": 516110113, "lat": 47.6148826, "lon": 18.8975224, "tags": {"addr:city": "Pilisv\u00f6r\u00f6sv\u00e1r", "addr:housenumber": "4", "addr:postcode": "2085", "addr:street": "B\u00e9csi \u00fat", "amenity": "fuel", "internet_access": "wlan", "name": "Orlen", "wheelchair": "yes"}}, {"type": "node", "id": 516126003, "lat": 47.6283643, "lon": 18.852179}, {"type": "node", "id": 516126005, "lat": 47.6281772, "lon": 18.8521252}, {"type": "node", "id": 516126007, "lat": 47.6283386, "lon": 18.8523762}, {"type": "node", "id": 516126009, "lat": 47.6281515, "lon": 18.8523224}, {"type": "node", "id": 595755790, "lat": 47.5501748, "lon": 19.1387418}, {"type": "node", "id": 595755791, "lat": 47.549972, "lon": 19.138495}, {"type": "node", "id": 595755792, "lat": 47.550068, "lon": 19.1383234}, {"type": "node", "id": 595755793, "lat": 47.5501169, "lon": 19.1383851}, {"type": "node", "id": 595755794, "lat": 47.5502164, "lon": 19.1381919}, {"type": "node", "id": 595755795, "lat": 47.5503269, "lon": 19.1383234}, {"type": "node", "id": 595755796, "lat": 47.5502182, "lon": 19.1385272}, {"type": "node", "id": 595755797, "lat": 47.5502653, "lon": 19.1385889}, {"type": "node", "id": 601423496, "lat": 47.4423115, "lon": 19.159069, "tags": {"addr:city": "Budapest", "addr:housenumber": "16", "addr:postcode": "1194", "addr:street": "Pusk\u00e1s Ferenc utca", "air_conditioning": "yes", "amenity": "fuel", "brand": "MOL", "brand:wikidata": "Q549181", "brand:wikipedia": "en:MOL (company)", "compressed_air": "yes", "contact:facebook": "https://www.facebook.com/mol.magyarorszag/", "contact:instagram": "https://www.instagram.com/mol.magyarorszag/", "contact:phone": "+36 1 282 9016", "contact:website": "https://www.mol.hu", "contact:youtube": "https://www.youtube.com/user/molgrouptv", "food": "no", "fuel:GTL_diesel": "yes", "fuel:adblue": "no", "fuel:diesel": "yes", "fuel:lpg": "no", "fuel:octane_100": "yes", "fuel:octane_95": "yes", "name": "MOL", "opening_hours": "Mo-Su 05:00-23:00", "operator": "MOL Nyrt.", "operator:addr": "1117 Budapest, Domb\u00f3v\u00e1ri \u00fat 28.", "payment:cash": "yes", "payment:contactless": "yes", "payment:maestro": "yes", "payment:mastercard": "yes", "payment:mastercard_contactless": "yes", "payment:mastercard_electronic": "yes", "payment:visa": "yes", "payment:visa_electron": "yes", "ref:HU:company": "01-10-041683", "ref:HU:vatin": "10625790-4-44", "rent:lpg_bottles": "yes", "source": "website", "source:date": "2022-05-21", "truck": "no"}}, {"type": "node", "id": 685050685, "lat": 47.4687163, "lon": 19.0489653}, {"type": "node", "id": 724511360, "lat": 47.6056555, "lon": 18.9059211, "tags": {"addr:city": "Pilisszentiv\u00e1n", "addr:housenumber": "1", "addr:postcode": "2084", "addr:street": "T\u00f3part utca", "amenity": "fuel", "name": "Schuck - T\u00f6lt\u0151\u00e1llom\u00e1s", "wheelchair": "no"}}, {"type": "node", "id": 750466114, "lat": 47.4533979, "lon": 19.0182005, "tags": {"addr:city": "Budapest", "addr:housenumber": "66-68", "addr:postcode": "1112", "addr:street": "P\u00e9terhegyi \u00fat", "air_conditioning": "yes", "amenity": "fuel", "brand": "OMV", "brand:wikidata": "Q168238", "brand:wikipedia": "en:OMV", "compressed_air": "yes", "contact:email": "info.hungary@omv.com", "contact:facebook": "https://www.facebook.com/omvmagyarorszag", "contact:fax": "+36 1 381 9899", "contact:instagram": "https://www.instagram.com/omv/", "contact:linkedin": "https://www.linkedin.com/company/omv", "contact:twitter": "omv", "contact:website": "https://www.omv.hu", "contact:youtube": "https://www.youtube.com/user/omvofficial", "fuel:GTL_diesel": "yes", "fuel:diesel": "yes", "fuel:octane_100": "yes", "fuel:octane_95": "yes", "internet_access:ssid": "OMV", "name": "OMV", "opening_hours": "24/7", "opening_hours:covid19": "same", "operator": "OMV Hung\u00e1ria Kft.", "operator:addr": "1117 Budapest, Okt\u00f3ber huszonharmadika utca 6-10 5. emelet 5/A.", "payment:cash": "yes", "payment:contactless": "yes", "payment:maestro": "yes", "payment:mastercard": "yes", "payment:mastercard_contactless": "yes", "payment:mastercard_electronic": "yes", "payment:visa": "yes", "payment:visa_electron": "yes", "ref:HU:company": "01-09-071584", "ref:HU:vatin": "10542925-2-44", "ref:vatin": "HU10542925", "source": "website", "source:date": "2020-10-03"}}, {"type": "node", "id": 750466174, "lat": 47.454979, "lon": 19.0196566, "tags": {"addr:city": "Budapest", "addr:housenumber": "54", "addr:postcode": "1112", "addr:street": "P\u00e9terhegyi \u00fat", "amenity": "fuel", "brand": "Shell", "brand:wikidata": "Q110716465", "brand:wikipedia": "en:Royal Dutch Shell", "fuel:diesel": "yes", "fuel:lpg": "yes", "fuel:octane_95": "yes", "name": "Shell", "operator": "Shell Hungary Zrt.", "self_service": "yes", "website": "https://www.shell.hu/"}}, {"type": "node", "id": 752197842, "lat": 47.5030334, "lon": 18.9211056, "tags": {"addr:city": "Budakeszi", "addr:conscriptionnumber": "2749/8", "addr:postcode": "2092", "addr:street": "Buda\u00f6rsi \u00fat", "air_conditioning": "yes", "amenity": "fuel", "brand": "MOL", "brand:wikidata": "Q549181", "brand:wikipedia": "hu:MOL Magyar Olaj- \u00e9s G\u00e1zipari Nyrt.", "compressed_air": "yes", "contact:facebook": "https://www.facebook.com/mol.magyarorszag/", "contact:instagram": "https://www.instagram.com/mol.magyarorszag/", "contact:website": "https://www.mol.hu", "contact:youtube": "https://www.youtube.com/user/molgrouptv", "food": "yes", "fuel:GTL_diesel": "yes", "fuel:adblue": "no", "fuel:diesel": "yes", "fuel:lpg": "yes", "fuel:octane_100": "yes", "fuel:octane_95": "yes", "fuel:octane_98": "yes", "name": "MOL", "opening_hours": "Mo-Su 06:00-22:00", "operator": "MOL Nyrt.", "operator:addr": "1117 Budapest, Domb\u00f3v\u00e1ri \u00fat 28.", "payment:cash": "yes", "payment:contactless": "yes", "payment:maestro": "yes", "payment:mastercard": "yes", "payment:mastercard_contactless": "yes", "payment:mastercard_electronic": "yes", "payment:visa": "yes", "payment:visa_electron": "yes", "ref:HU:company": "01-10-041683", "ref:HU:vatin": "10625790-4-44", "rent:lpg_bottles": "yes", "source": "website", "source:date": "2022-05-21", "truck": "no"}}, {"type": "node", "id": 752198349, "lat": 47.5017532, "lon": 18.9191901}, {"type": "node", "id": 764552059, "lat": 47.5001466, "lon": 19.1020952}, {"type": "node", "id": 764623032, "lat": 47.4704721, "lon": 19.0864876}, {"type": "node", "id": 771221150, "lat": 47.738936, "lon": 18.657046}, {"type": "node", "id": 771221151, "lat": 47.7388414, "lon": 18.6574733}, {"type": "node", "id": 771221155, "lat": 47.7390915, "lon": 18.657122}, {"type": "node", "id": 771221171, "lat": 47.7389969, "lon": 18.6575493}, {"type": "node", "id": 789945456, "lat": 47.4728765, "lon": 19.0326779, "tags": {"addr:city": "Budapest", "addr:housenumber": "105", "addr:postcode": "1115", "addr:street": "Bart\u00f3k B\u00e9la \u00fat", "amenity": "fuel", "email": "info@normbenz.hu", "fuel:diesel": "yes", "fuel:octane_95": "yes", "fuel:octane_98": "yes", "name": "Orlen", "opening_hours": "24/7", "operator": "NORMBENZ Magyarorsz\u00e1g Kft.", "ref:HU:vatin": "13100595-2-44", "toilets:wheelchair": "yes", "website": "https://orlen.hu/", "wheelchair": "yes"}}, {"type": "node", "id": 839144969, "lat": 47.521736, "lon": 19.062319}, {"type": "node", "id": 842345989, "lat": 47.7211218, "lon": 19.137976, "tags": {"amenity": "fuel", "brand": "OIL!", "brand:wikidata": "Q2007561", "brand:wikipedia": "de:OIL! Tankstellen", "name": "OIL!", "operator": "OIL!", "website": "http://www.oil-benzinkutak.hu"}}, {"type": "node", "id": 866750429, "lat": 47.461549, "lon": 19.0520064, "tags": {"addr:city": "Budapest", "addr:housenumber": "111-113", "addr:postcode": "1117", "addr:street": "Budafoki \u00fat", "air_conditioning": "yes", "amenity": "fuel", "brand": "OMV", "brand:wikidata": "Q168238", "brand:wikipedia": "en:OMV", "compressed_air": "yes", "contact:email": "info.hungary@omv.com", "contact:facebook": "https://www.facebook.com/omvmagyarorszag", "contact:fax": "+36 1 381 9899", "contact:instagram": "https://www.instagram.com/omv/", "contact:linkedin": "https://www.linkedin.com/company/omv", "contact:twitter": "omv", "contact:website": "https://www.omv.hu", "contact:youtube": "https://www.youtube.com/user/omvofficial", "fuel:GTL_diesel": "yes", "fuel:diesel": "yes", "fuel:octane_100": "yes", "fuel:octane_95": "yes", "name": "OMV", "opening_hours": "24/7", "opening_hours:covid19": "same", "operator": "OMV Hung\u00e1ria Kft.", "operator:addr": "1117 Budapest, Okt\u00f3ber huszonharmadika utca 6-10 5. emelet 5/A.", "payment:cash": "yes", "payment:contactless": "yes", "payment:maestro": "yes", "payment:mastercard": "yes", "payment:mastercard_contactless": "yes", "payment:mastercard_electronic": "yes", "payment:visa": "yes", "payment:visa_electron": "yes", "ref:HU:company": "01-09-071584", "ref:HU:vatin": "10542925-2-44", "ref:vatin": "HU10542925", "source": "website", "source:date": "2020-10-03", "wheelchair": "yes"}}, {"type": "node", "id": 866751034, "lat": 47.4528667, "lon": 19.0508476}, {"type": "node", "id": 898021231, "lat": 47.6616075, "lon": 19.0733899, "tags": {"addr:city": "Szentendre", "addr:housenumber": "6", "addr:postcode": "2000", "addr:street": "Vas\u00fati villasor", "air_conditioning": "yes", "amenity": "fuel", "brand": "MOL", "brand:wikidata": "Q549181", "brand:wikipedia": "hu:MOL Magyar Olaj- \u00e9s G\u00e1zipari Nyrt.", "compressed_air": "yes", "contact:facebook": "https://www.facebook.com/mol.magyarorszag/", "contact:instagram": "https://www.instagram.com/mol.magyarorszag/", "contact:website": "https://www.mol.hu", "contact:youtube": "https://www.youtube.com/user/molgrouptv", "food": "no", "fuel:GTL_diesel": "yes", "fuel:adblue": "no", "fuel:diesel": "yes", "fuel:lpg": "no", "fuel:octane_100": "yes", "fuel:octane_95": "yes", "fuel:octane_98": "yes", "name": "MOL", "opening_hours": "Mo-Su 06:00-21:00", "operator": "MOL Nyrt.", "operator:addr": "1117 Budapest, Domb\u00f3v\u00e1ri \u00fat 28.", "payment:cash": "yes", "payment:contactless": "yes", "payment:maestro": "yes", "payment:mastercard": "yes", "payment:mastercard_contactless": "yes", "payment:mastercard_electronic": "yes", "payment:visa": "yes", "payment:visa_electron": "yes", "ref:HU:company": "01-10-041683", "ref:HU:vatin": "10625790-4-44", "rent:lpg_bottles": "yes", "shop": "kiosk", "source": "website", "source:date": "2022-05-21", "truck": "no"}}, {"type": "node", "id": 919613751, "lat": 47.5371623, "lon": 18.9673315}, {"type": "node", "id": 967969597, "lat": 47.4890171, "lon": 19.0637722, "tags": {"addr:city": "Budapest", "addr:postcode": "1085", "addr:street": "Baross utca", "air_conditioning": "yes", "amenity": "fuel", "brand": "OMV", "brand:wikidata": "Q168238", "brand:wikipedia": "en:OMV", "compressed_air": "yes", "contact:email": "info.hungary@omv.com", "contact:facebook": "https://www.facebook.com/omvmagyarorszag", "contact:fax": "+36 1 381 9899", "contact:instagram": "https://www.instagram.com/omv/", "contact:linkedin": "https://www.linkedin.com/company/omv", "contact:twitter": "omv", "contact:website": "https://www.omv.hu", "contact:youtube": "https://www.youtube.com/user/omvofficial", "fuel:GTL_diesel": "yes", "fuel:diesel": "yes", "fuel:octane_100": "yes", "fuel:octane_95": "yes", "name": "OMV", "opening_hours": "24/7", "opening_hours:covid19": "same", "operator": "OMV Hung\u00e1ria Kft.", "operator:addr": "1117 Budapest, Okt\u00f3ber huszonharmadika utca 6-10 5. emelet 5/A.", "payment:cash": "yes", "payment:contactless": "yes", "payment:maestro": "yes", "payment:mastercard": "yes", "payment:mastercard_contactless": "yes", "payment:mastercard_electronic": "yes", "payment:visa": "yes", "payment:visa_electron": "yes", "ref:HU:company": "01-09-071584", "ref:HU:vatin": "10542925-2-44", "ref:vatin": "HU10542925", "source": "website", "source:date": "2020-10-03", "wheelchair": "yes"}}, {"type": "node", "id": 1003605925, "lat": 47.3831375, "lon": 19.1070104, "tags": {"amenity": "fuel", "brand": "Shell", "brand:wikidata": "Q154950", "brand:wikipedia": "en:Royal Dutch Shell", "name": "Shell", "operator": "Shell", "website": "https://www.shell.hu/"}}, {"type": "node", "id": 1018717347, "lat": 47.4519253, "lon": 18.9034352, "tags": {"amenity": "fuel", "brand": "Shell", "brand:wikidata": "Q110716465", "brand:wikipedia": "en:Royal Dutch Shell", "fuel:diesel": "yes", "fuel:octane_100": "yes", "fuel:octane_95": "yes", "fuel:octane_98": "yes", "name": "Shell", "operator": "Shell", "toilets:wheelchair": "yes", "wheelchair": "yes"}}, {"type": "node", "id": 1051631334, "lat": 47.5044699, "lon": 19.1507859, "tags": {"addr:city": "Budapest", "addr:housenumber": "73", "addr:postcode": "1106", "addr:street": "Kerepesi \u00fat", "air_conditioning": "yes", "amenity": "fuel", "brand": "OMV", "brand:wikidata": "Q168238", "brand:wikipedia": "en:OMV", "compressed_air": "yes", "contact:email": "info.hungary@omv.com", "contact:facebook": "https://www.facebook.com/omvmagyarorszag", "contact:fax": "+36 1 381 9899", "contact:instagram": "https://www.instagram.com/omv/", "contact:linkedin": "https://www.linkedin.com/company/omv", "contact:twitter": "omv", "contact:website": "https://www.omv.hu", "contact:youtube": "https://www.youtube.com/user/omvofficial", "fuel:GTL_diesel": "yes", "fuel:diesel": "yes", "fuel:octane_100": "yes", "fuel:octane_95": "yes", "name": "OMV", "opening_hours": "24/7", "opening_hours:covid19": "same", "operator": "OMV Hung\u00e1ria Kft.", "operator:addr": "1117 Budapest, Okt\u00f3ber huszonharmadika utca 6-10 5. emelet 5/A.", "payment:cash": "yes", "payment:contactless": "yes", "payment:maestro": "yes", "payment:mastercard": "yes", "payment:mastercard_contactless": "yes", "payment:mastercard_electronic": "yes", "payment:visa": "yes", "payment:visa_electron": "yes", "ref:HU:company": "01-09-071584", "ref:HU:vatin": "10542925-2-44", "ref:vatin": "HU10542925", "source": "website", "source:date": "2020-10-03", "wheelchair": "yes"}}, {"type": "node", "id": 1074894602, "lat": 47.5033581, "lon": 19.141243, "tags": {"amenity": "fuel", "brand": "Shell", "brand:wikidata": "Q154950", "brand:wikipedia": "en:Royal Dutch Shell", "name": "Shell", "operator": "Shell", "website": "https://www.shell.hu/", "wheelchair": "limited"}}, {"type": "node", "id": 1110751526, "lat": 47.4852422, "lon": 19.106034, "tags": {"addr:city": "Budapest", "addr:housenumber": "76", "addr:postcode": "1087", "addr:street": "K\u00f6nyves K\u00e1lm\u00e1n k\u00f6r\u00fat", "air_conditioning": "yes", "amenity": "fuel", "brand": "OMV", "brand:wikidata": "Q168238", "brand:wikipedia": "en:OMV", "compressed_air": "yes", "contact:email": "info.hungary@omv.com", "contact:facebook": "https://www.facebook.com/omvmagyarorszag", "contact:fax": "+36 1 381 9899", "contact:instagram": "https://www.instagram.com/omv/", "contact:linkedin": "https://www.linkedin.com/company/omv", "contact:twitter": "omv", "contact:website": "https://www.omv.hu", "contact:youtube": "https://www.youtube.com/user/omvofficial", "fuel:GTL_diesel": "yes", "fuel:diesel": "yes", "fuel:octane_100": "yes", "fuel:octane_95": "yes", "name": "OMV", "opening_hours": "Mo-Su 06:00-22:00; PH off", "opening_hours:covid19": "same", "operator": "OMV Hung\u00e1ria Kft.", "operator:addr": "1117 Budapest, Okt\u00f3ber huszonharmadika utca 6-10 5. emelet 5/A.", "payment:cash": "yes", "payment:contactless": "yes", "payment:maestro": "yes", "payment:mastercard": "yes", "payment:mastercard_contactless": "yes", "payment:mastercard_electronic": "yes", "payment:visa": "yes", "payment:visa_electron": "yes", "phone": "+36 1 323-0505", "ref:HU:company": "01-09-071584", "ref:HU:vatin": "10542925-2-44", "ref:vatin": "HU10542925", "source": "website", "source:date": "2020-10-03", "wheelchair": "yes"}}, {"type": "node", "id": 1142124565, "lat": 47.4731909, "lon": 18.8330153}, {"type": "node", "id": 1142124570, "lat": 47.4730287, "lon": 18.8329169}, {"type": "node", "id": 1142124571, "lat": 47.4730092, "lon": 18.8333106}, {"type": "node", "id": 1142124572, "lat": 47.4728874, "lon": 18.8331466}, {"type": "node", "id": 1142124573, "lat": 47.473072, "lon": 18.8329752}, {"type": "node", "id": 1142124574, "lat": 47.4731124, "lon": 18.8329096}, {"type": "node", "id": 1167986244, "lat": 47.4900182, "lon": 19.1505977, "tags": {"addr:city": "Budapest", "addr:postcode": "1106", "addr:street": "Magl\u00f3di \u00fat", "air_conditioning": "yes", "amenity": "fuel", "brand": "OMV", "brand:wikidata": "Q168238", "brand:wikipedia": "en:OMV", "compressed_air": "yes", "contact:email": "info.hungary@omv.com", "contact:facebook": "https://www.facebook.com/omvmagyarorszag", "contact:fax": "+36 1 381 9899", "contact:instagram": "https://www.instagram.com/omv/", "contact:linkedin": "https://www.linkedin.com/company/omv", "contact:twitter": "omv", "contact:website": "https://www.omv.hu", "contact:youtube": "https://www.youtube.com/user/omvofficial", "fuel:GTL_diesel": "yes", "fuel:diesel": "yes", "fuel:octane_100": "yes", "fuel:octane_95": "yes", "name": "OMV", "opening_hours": "Mo-Su 06:00-22:00; PH off", "opening_hours:covid19": "same", "operator": "OMV Hung\u00e1ria Kft.", "operator:addr": "1117 Budapest, Okt\u00f3ber huszonharmadika utca 6-10 5. emelet 5/A.", "payment:cash": "yes", "payment:contactless": "yes", "payment:maestro": "yes", "payment:mastercard": "yes", "payment:mastercard_contactless": "yes", "payment:mastercard_electronic": "yes", "payment:visa": "yes", "payment:visa_electron": "yes", "ref:HU:company": "01-09-071584", "ref:HU:vatin": "10542925-2-44", "ref:vatin": "HU10542925", "source": "website", "source:date": "2020-10-03"}}, {"type": "node", "id": 1186521658, "lat": 47.4479838, "lon": 19.0064615}, {"type": "node", "id": 1186521666, "lat": 47.4480641, "lon": 19.0064762}, {"type": "node", "id": 1186521667, "lat": 47.4481124, "lon": 19.0066589}, {"type": "node", "id": 1186521681, "lat": 47.4480495, "lon": 19.0066474}, {"type": "node", "id": 1186521683, "lat": 47.4480411, "lon": 19.0067482}, {"type": "node", "id": 1186521692, "lat": 47.4480609, "lon": 19.0065145}, {"type": "node", "id": 1186521693, "lat": 47.447961, "lon": 19.0067335}, {"type": "node", "id": 1186521695, "lat": 47.4481235, "lon": 19.0065259}, {"type": "node", "id": 1194251897, "lat": 47.432841, "lon": 19.0413134, "tags": {"amenity": "fuel", "brand": "Auchan", "brand:wikidata": "Q758603", "brand:wikipedia": "en:Auchan", "name": "Auchan", "opening_hours": "Mo-Sa 06:00-22:00; Su 07:00-20:00", "wheelchair": "limited"}}, {"type": "node", "id": 1224299453, "lat": 47.4663789, "lon": 19.0063367, "tags": {"addr:city": "Budapest", "addr:postcode": "1118", "addr:street": "R\u00e9tk\u00f6z utca", "air_conditioning": "yes", "amenity": "fuel", "brand": "MOL", "brand:wikidata": "Q549181", "brand:wikipedia": "hu:MOL Magyar Olaj- \u00e9s G\u00e1zipari Nyrt.", "compressed_air": "yes", "contact:facebook": "https://www.facebook.com/mol.magyarorszag/", "contact:instagram": "https://www.instagram.com/mol.magyarorszag/", "contact:website": "https://www.mol.hu", "contact:youtube": "https://www.youtube.com/user/molgrouptv", "food": "yes", "fuel:GTL_diesel": "yes", "fuel:adblue": "no", "fuel:diesel": "yes", "fuel:lpg": "no", "fuel:octane_100": "yes", "fuel:octane_95": "yes", "indoor": "no", "level": "0", "name": "MOL", "opening_hours": "Mo-Su 06:00-22:00", "operator": "MOL Nyrt.", "operator:addr": "1117 Budapest, Domb\u00f3v\u00e1ri \u00fat 28.", "payment:cash": "yes", "payment:contactless": "yes", "payment:maestro": "yes", "payment:mastercard": "yes", "payment:mastercard_contactless": "yes", "payment:mastercard_electronic": "yes", "payment:visa": "yes", "payment:visa_electron": "yes", "ref:HU:company": "01-10-041683", "ref:HU:vatin": "10625790-4-44", "rent:lpg_bottles": "no", "source": "website", "source:date": "2022-05-21", "truck": "no", "wheelchair": "yes"}}, {"type": "node", "id": 1278126216, "lat": 47.5644351, "lon": 19.0785873, "tags": {"addr:city": "Budapest", "addr:housenumber": "16", "addr:postcode": "1044", "addr:street": "V\u00e1ci \u00fat", "air_conditioning": "yes", "amenity": "fuel", "brand": "OMV", "brand:wikidata": "Q168238", "brand:wikipedia": "en:OMV", "compressed_air": "yes", "contact:email": "info.hungary@omv.com", "contact:facebook": "https://www.facebook.com/omvmagyarorszag", "contact:fax": "+36 1 381 9899", "contact:instagram": "https://www.instagram.com/omv/", "contact:linkedin": "https://www.linkedin.com/company/omv", "contact:twitter": "omv", "contact:website": "https://www.omv.hu", "contact:youtube": "https://www.youtube.com/user/omvofficial", "fuel:GTL_diesel": "yes", "fuel:diesel": "yes", "fuel:octane_100": "yes", "fuel:octane_95": "yes", "name": "OMV", "note": "08-MAJ-11 11:28:51PM", "opening_hours": "Mo-Su 06:00-22:00; PH off", "opening_hours:covid19": "same", "operator": "OMV Hung\u00e1ria Kft.", "operator:addr": "1117 Budapest, Okt\u00f3ber huszonharmadika utca 6-10 5. emelet 5/A.", "payment:cash": "yes", "payment:contactless": "yes", "payment:maestro": "yes", "payment:mastercard": "yes", "payment:mastercard_contactless": "yes", "payment:mastercard_electronic": "yes", "payment:visa": "yes", "payment:visa_electron": "yes", "ref:HU:company": "01-09-071584", "ref:HU:vatin": "10542925-2-44", "ref:vatin": "HU10542925", "source": "website", "source:date": "2020-10-03"}}, {"type": "node", "id": 1308268211, "lat": 47.3793588, "lon": 19.0527621}, {"type": "node", "id": 1308299998, "lat": 47.3803479, "lon": 19.0563128}, {"type": "node", "id": 1308300007, "lat": 47.3802045, "lon": 19.0562291}, {"type": "node", "id": 1308300016, "lat": 47.380406, "lon": 19.0560959}, {"type": "node", "id": 1308300081, "lat": 47.3802626, "lon": 19.0560122}, {"type": "node", "id": 1341425951, "lat": 47.6075676, "lon": 18.9427079}, {"type": "node", "id": 1347735849, "lat": 47.5605035, "lon": 19.1208577}, {"type": "node", "id": 1347735850, "lat": 47.5603676, "lon": 19.1211375}, {"type": "node", "id": 1347735853, "lat": 47.5604406, "lon": 19.1212154}, {"type": "node", "id": 1347735872, "lat": 47.5605765, "lon": 19.1209356}, {"type": "node", "id": 1358621815, "lat": 47.5580895, "lon": 19.0764725, "tags": {"amenity": "fuel", "brand": "Shell", "brand:wikidata": "Q154950", "brand:wikipedia": "en:Royal Dutch Shell", "compressed_air": "yes", "name": "Shell", "opening_hours": "24/7", "operator": "Shell", "website": "https://www.shell.hu/"}}, {"type": "node", "id": 1359444991, "lat": 47.5528969, "lon": 19.0919713}, {"type": "node", "id": 1359445006, "lat": 47.5530773, "lon": 19.0921664}, {"type": "node", "id": 1359445013, "lat": 47.5528757, "lon": 19.0920803}, {"type": "node", "id": 1359445015, "lat": 47.5529679, "lon": 19.0921197}, {"type": "node", "id": 1359445016, "lat": 47.5530985, "lon": 19.0920574}, {"type": "node", "id": 1362212437, "lat": 47.6370004, "lon": 19.1293194, "tags": {"amenity": "fuel", "brand": "Lukoil", "brand:wikidata": "Q329347", "compressed_air": "no", "name": "Lukoil"}}, {"type": "node", "id": 1365277331, "lat": 47.4520716, "lon": 18.9651643, "tags": {"amenity": "fuel", "brand": "Shell", "brand:wikidata": "Q110716465", "brand:wikipedia": "en:Royal Dutch Shell", "name": "Shell", "operator": "Shell", "website": "https://www.shell.hu/", "wheelchair": "yes"}}, {"type": "node", "id": 1365361077, "lat": 47.3567626, "lon": 18.8093669, "tags": {"amenity": "fuel", "name": "Orlen", "operator": "Normbenz Magyarorsz\u00e1g Kft.", "website": "https://orlen.hu/"}}, {"type": "node", "id": 1383427141, "lat": 47.5085762, "lon": 19.1015546}, {"type": "node", "id": 1383427142, "lat": 47.5077572, "lon": 19.1040673, "tags": {"addr:city": "Budapest", "addr:housenumber": "83-85", "addr:postcode": "1143", "addr:street": "Hung\u00e1ria k\u00f6r\u00fat", "air_conditioning": "yes", "amenity": "fuel", "brand": "MOL", "brand:wikidata": "Q549181", "brand:wikipedia": "hu:MOL Magyar Olaj- \u00e9s G\u00e1zipari Nyrt.", "compressed_air": "yes", "contact:facebook": "https://www.facebook.com/mol.magyarorszag/", "contact:instagram": "https://www.instagram.com/mol.magyarorszag/", "contact:website": "https://www.mol.hu", "contact:youtube": "https://www.youtube.com/user/molgrouptv", "food": "no", "fuel:GTL_diesel": "yes", "fuel:adblue": "no", "fuel:diesel": "yes", "fuel:lpg": "no", "fuel:octane_100": "yes", "fuel:octane_95": "yes", "name": "MOL", "operator": "MOL Nyrt.", "operator:addr": "1117 Budapest, Domb\u00f3v\u00e1ri \u00fat 28.", "payment:cash": "yes", "payment:contactless": "yes", "payment:maestro": "yes", "payment:mastercard": "yes", "payment:mastercard_contactless": "yes", "payment:mastercard_electronic": "yes", "payment:visa": "yes", "payment:visa_electron": "yes", "ref:HU:company": "01-10-041683", "ref:HU:vatin": "10625790-4-44", "rent:lpg_bottles": "yes", "source": "website", "source:date": "2022-05-21", "truck": "no", "wheelchair": "yes"}}, {"type": "node", "id": 1399707181, "lat": 47.6059141, "lon": 19.1126652}, {"type": "node", "id": 1399707182, "lat": 47.6059466, "lon": 19.1127751}, {"type": "node", "id": 1408782730, "lat": 47.551085, "lon": 19.0737442, "tags": {"addr:city": "Budapest", "addr:housenumber": "178", "addr:postcode": "1138", "addr:street": "V\u00e1ci \u00fat", "air_conditioning": "yes", "amenity": "fuel", "brand": "MOL", "brand:wikidata": "Q549181", "brand:wikipedia": "hu:MOL Magyar Olaj- \u00e9s G\u00e1zipari Nyrt.", "compressed_air": "yes", "contact:facebook": "https://www.facebook.com/mol.magyarorszag/", "contact:instagram": "https://www.instagram.com/mol.magyarorszag/", "contact:website": "https://www.mol.hu", "contact:youtube": "https://www.youtube.com/user/molgrouptv", "food": "no", "fuel:GTL_diesel": "yes", "fuel:adblue": "no", "fuel:diesel": "yes", "fuel:lpg": "no", "fuel:octane_100": "yes", "fuel:octane_95": "yes", "name": "MOL", "operator": "MOL Nyrt.", "operator:addr": "1117 Budapest, Domb\u00f3v\u00e1ri \u00fat 28.", "payment:cash": "yes", "payment:contactless": "yes", "payment:maestro": "yes", "payment:mastercard": "yes", "payment:mastercard_contactless": "yes", "payment:mastercard_electronic": "yes", "payment:visa": "yes", "payment:visa_electron": "yes", "ref:HU:company": "01-10-041683", "ref:HU:vatin": "10625790-4-44", "rent:lpg_bottles": "no", "source": "website", "source:date": "2022-05-21", "toilets:wheelchair": "yes", "truck": "no", "wheelchair": "yes"}}, {"type": "node", "id": 1408782747, "lat": 47.53784, "lon": 19.06062, "tags": {"amenity": "fuel", "brand": "Shell", "brand:wikidata": "Q154950", "brand:wikipedia": "en:Royal Dutch Shell", "name": "Shell", "operator": "Shell", "website": "https://www.shell.hu/"}}, {"type": "node", "id": 1426063009, "lat": 47.5275668, "lon": 19.0756438, "tags": {"addr:city": "Budapest", "addr:housenumber": "64-66", "addr:postcode": "1134", "addr:street": "R\u00f3bert K\u00e1roly k\u00f6r\u00fat", "air_conditioning": "yes", "amenity": "fuel", "brand": "OMV", "brand:wikidata": "Q168238", "brand:wikipedia": "en:OMV", "compressed_air": "yes", "contact:email": "info.hungary@omv.com", "contact:facebook": "https://www.facebook.com/omvmagyarorszag", "contact:fax": "+36 1 381 9899", "contact:instagram": "https://www.instagram.com/omv/", "contact:linkedin": "https://www.linkedin.com/company/omv", "contact:twitter": "omv", "contact:website": "https://www.omv.hu", "contact:youtube": "https://www.youtube.com/user/omvofficial", "fuel:GTL_diesel": "yes", "fuel:diesel": "yes", "fuel:octane_100": "yes", "fuel:octane_95": "yes", "name": "OMV", "opening_hours": "24/7", "opening_hours:covid19": "same", "operator": "OMV Hung\u00e1ria Kft.", "operator:addr": "1117 Budapest, Okt\u00f3ber huszonharmadika utca 6-10 5. emelet 5/A.", "payment:cash": "yes", "payment:contactless": "yes", "payment:maestro": "yes", "payment:mastercard": "yes", "payment:mastercard_contactless": "yes", "payment:mastercard_electronic": "yes", "payment:visa": "yes", "payment:visa_electron": "yes", "ref:HU:company": "01-09-071584", "ref:HU:vatin": "10542925-2-44", "ref:vatin": "HU10542925", "source": "website", "source:date": "2020-10-03"}}, {"type": "node", "id": 1429798927, "lat": 47.5226709, "lon": 19.0810614}, {"type": "node", "id": 1429798954, "lat": 47.5227894, "lon": 19.081286}, {"type": "node", "id": 1429798992, "lat": 47.5226802, "lon": 19.0810269}, {"type": "node", "id": 1429799016, "lat": 47.5228325, "lon": 19.0813114}, {"type": "node", "id": 1429799021, "lat": 47.5226631, "lon": 19.0814226}, {"type": "node", "id": 1429799022, "lat": 47.5228346, "lon": 19.081118}, {"type": "node", "id": 1429799080, "lat": 47.5227678, "lon": 19.081552}, {"type": "node", "id": 1429799086, "lat": 47.5225845, "lon": 19.0813756}, {"type": "node", "id": 1429799147, "lat": 47.5226451, "lon": 19.081484}, {"type": "node", "id": 1429799155, "lat": 47.5226041, "lon": 19.0813017}, {"type": "node", "id": 1433197437, "lat": 47.5181823, "lon": 19.0719088}, {"type": "node", "id": 1433197467, "lat": 47.5182082, "lon": 19.0718823}, {"type": "node", "id": 1439921241, "lat": 47.5216293, "lon": 19.0625417}, {"type": "node", "id": 1439921277, "lat": 47.5216591, "lon": 19.0625711}, {"type": "node", "id": 1439921318, "lat": 47.5215797, "lon": 19.0624536}, {"type": "node", "id": 1439921354, "lat": 47.5216012, "lon": 19.0624756}, {"type": "node", "id": 1472204564, "lat": 47.3789104, "lon": 19.1303562}, {"type": "node", "id": 1472204572, "lat": 47.3790023, "lon": 19.1305363}, {"type": "node", "id": 1472204575, "lat": 47.3790369, "lon": 19.1302154}, {"type": "node", "id": 1472204577, "lat": 47.3791288, "lon": 19.1303955}, {"type": "node", "id": 1502716088, "lat": 47.5759797, "lon": 18.9386456, "tags": {"addr:city": "Solym\u00e1r", "addr:housenumber": "2", "addr:postcode": "2083", "addr:street": "R\u00f3zsika utca", "amenity": "fuel", "brand": "Shell", "fuel:diesel": "yes", "fuel:octane_95": "yes", "fuel:octane_98": "yes", "name": "Shell Solym\u00e1r", "opening_hours": "24/7", "shop": "yes", "wheelchair": "yes"}}, {"type": "node", "id": 1564496993, "lat": 47.4771183, "lon": 19.0812256}, {"type": "node", "id": 1587520253, "lat": 47.5215537, "lon": 19.0624449}, {"type": "node", "id": 1587520255, "lat": 47.5215901, "lon": 19.0622571}, {"type": "node", "id": 1587520256, "lat": 47.5216851, "lon": 19.0625819}, {"type": "node", "id": 1645918362, "lat": 47.3789297, "lon": 18.9389215, "tags": {"amenity": "fuel", "brand": "Lukoil", "brand:wikidata": "Q329347", "brand:wikipedia": "en:Lukoil", "email": "info.HU@eu.lukoil.com", "name": "LUKOIL", "operator": "LUKOIL Magyarorsz\u00e1g Kft.", "website": "http://www.lukoil.hu"}}, {"type": "node", "id": 1654296104, "lat": 47.37042, "lon": 19.0480297, "tags": {"amenity": "fuel", "internet_access": "wlan", "name": "Orlen Shop", "opening_hours": "24/7", "operator": "Normbenz Magyarorsz\u00e1g Kft.", "phone": "+36 30 514 5152", "website": "https://orlen.hu/", "wheelchair": "yes"}}, {"type": "node", "id": 1654587891, "lat": 47.6276067, "lon": 19.126037}, {"type": "node", "id": 1679665879, "lat": 47.627526, "lon": 19.125951}, {"type": "node", "id": 1679665884, "lat": 47.6274532, "lon": 19.1263544}, {"type": "node", "id": 1679665889, "lat": 47.6273724, "lon": 19.1262684}, {"type": "node", "id": 1679665892, "lat": 47.6267142, "lon": 19.1263818, "tags": {"addr:city": "Dunakeszi", "addr:conscriptionnumber": "7967", "addr:postcode": "2120", "air_conditioning": "yes", "amenity": "fuel", "branch": "Dunakeszi", "brand": "Shell", "brand:wikidata": "Q154950", "brand:wikipedia": "en:Royal Dutch Shell", "compressed_air": "yes", "contact:facebook": "https://www.facebook.com/ShellMagyarorszag/", "contact:fax": "+36 1 999 8673", "contact:phone": "+36 27 547 300", "contact:twitter": "shell", "contact:website": "https://shell.hu/", "fuel:diesel": "yes", "fuel:octane_95": "yes", "name": "Shell", "opening_hours": "Mo-Su 06:00-22:00; PH off", "opening_hours:covid19": "same", "operator": "Shell Hungary Zrt.", "operator:addr": "1113 Budapest, Bocskai \u00fat 134-146.", "payment:cash": "yes", "payment:contactless": "yes", "payment:maestro": "yes", "payment:mastercard": "yes", "payment:mastercard_contactless": "yes", "payment:mastercard_electronic": "yes", "payment:visa": "yes", "payment:visa_electron": "yes", "ref": "154", "ref:HU:company": "01-10-042420", "ref:HU:vatin": "10891810-2-44", "ref:vatin": "HU10891810"}}, {"type": "node", "id": 1684778363, "lat": 47.3877371, "lon": 18.8389222}, {"type": "node", "id": 1684778371, "lat": 47.3877453, "lon": 18.8389516}, {"type": "node", "id": 1684778407, "lat": 47.3877784, "lon": 18.8388972}, {"type": "node", "id": 1684778413, "lat": 47.3877865, "lon": 18.8389265}, {"type": "node", "id": 1693235027, "lat": 47.5034649, "lon": 19.003649, "tags": {"addr:city": "Budapest", "addr:housenumber": "55", "addr:postcode": "1125", "addr:street": "Istenhegyi \u00fat", "air_conditioning": "yes", "amenity": "fuel", "brand": "MOL", "brand:wikidata": "Q549181", "brand:wikipedia": "hu:MOL Magyar Olaj- \u00e9s G\u00e1zipari Nyrt.", "compressed_air": "yes", "contact:facebook": "https://www.facebook.com/mol.magyarorszag/", "contact:instagram": "https://www.instagram.com/mol.magyarorszag/", "contact:website": "https://www.mol.hu", "contact:youtube": "https://www.youtube.com/user/molgrouptv", "food": "no", "fuel:GTL_diesel": "yes", "fuel:adblue": "no", "fuel:diesel": "yes", "fuel:lpg": "no", "fuel:octane_100": "yes", "fuel:octane_95": "yes", "name": "MOL", "operator": "MOL Nyrt.", "operator:addr": "1117 Budapest, Domb\u00f3v\u00e1ri \u00fat 28.", "payment:cash": "yes", "payment:contactless": "yes", "payment:maestro": "yes", "payment:mastercard": "yes", "payment:mastercard_contactless": "yes", "payment:mastercard_electronic": "yes", "payment:visa": "yes", "payment:visa_electron": "yes", "ref:HU:company": "01-10-041683", "ref:HU:vatin": "10625790-4-44", "rent:lpg_bottles": "no", "source": "website", "source:date": "2022-05-21", "truck": "no", "wheelchair": "yes"}}, {"type": "node", "id": 1698441597, "lat": 47.5056835, "lon": 19.1124077, "tags": {"addr:city": "Budapest", "addr:housenumber": "22", "addr:postcode": "1149", "addr:street": "Mogyor\u00f3di \u00fat", "amenity": "fuel", "contact:email": "info@normbenz.hu", "name": "Orlen", "operator": "Normbenz Magyarorsz\u00e1g Kft.", "website": "https://orlen.hu/"}}, {"type": "node", "id": 1698466970, "lat": 47.5050493, "lon": 19.1206582, "tags": {"addr:city": "Budapest", "addr:housenumber": "56/A", "addr:postcode": "1148", "addr:street": "Fogarasi \u00fat", "air_conditioning": "yes", "amenity": "fuel", "brand": "OMV", "brand:wikidata": "Q168238", "brand:wikipedia": "en:OMV", "compressed_air": "yes", "contact:email": "info.hungary@omv.com", "contact:facebook": "https://www.facebook.com/omvmagyarorszag", "contact:fax": "+36 1 381 9899", "contact:instagram": "https://www.instagram.com/omv/", "contact:linkedin": "https://www.linkedin.com/company/omv", "contact:twitter": "omv", "contact:website": "https://www.omv.hu", "contact:youtube": "https://www.youtube.com/user/omvofficial", "fixme": "housenumber? Nem 26/A? Az OBI a 28-54.", "fuel:GTL_diesel": "yes", "fuel:diesel": "yes", "fuel:octane_100": "yes", "fuel:octane_95": "yes", "name": "OMV", "opening_hours": "24/7", "opening_hours:covid19": "same", "operator": "OMV Hung\u00e1ria Kft.", "operator:addr": "1117 Budapest, Okt\u00f3ber huszonharmadika utca 6-10 5. emelet 5/A.", "payment:cash": "yes", "payment:contactless": "yes", "payment:maestro": "yes", "payment:mastercard": "yes", "payment:mastercard_contactless": "yes", "payment:mastercard_electronic": "yes", "payment:visa": "yes", "payment:visa_electron": "yes", "ref:HU:company": "01-09-071584", "ref:HU:vatin": "10542925-2-44", "ref:vatin": "HU10542925", "source": "website", "source:date": "2020-10-03", "wheelchair": "yes"}}, {"type": "node", "id": 1703304298, "lat": 47.5380606, "lon": 19.0840406}, {"type": "node", "id": 1758527309, "lat": 47.4886469, "lon": 19.0927371, "tags": {"addr:city": "Budapest", "addr:housenumber": "46-48", "addr:postcode": "1089", "addr:street": "Orczy \u00fat", "amenity": "fuel", "name": "Orlen", "opening_hours": "24/7", "operator": "Normbenz Magyarorsz\u00e1g Kft.", "phone": "+36 30 327 1211", "toilets:wheelchair": "yes", "website": "https://orlen.hu/", "wheelchair": "yes"}}, {"type": "node", "id": 1845623551, "lat": 47.6189143, "lon": 19.068671, "tags": {"amenity": "fuel", "name": "ENVI", "opening_hours": "24/7", "operator": "Metro"}}, {"type": "node", "id": 1847681145, "lat": 47.6506579, "lon": 19.0002941, "tags": {"addr:city": "Pom\u00e1z", "addr:housenumber": "1", "addr:postcode": "2013", "addr:street": "Margitliget \u00fat", "amenity": "fuel", "fuel:diesel": "yes", "fuel:octane_95": "yes", "operator": "Fernox kft.", "self_service": "yes"}}, {"type": "node", "id": 1866330090, "lat": 47.5750183, "lon": 19.0805965, "tags": {"addr:city": "Budapest", "addr:housenumber": "84-90", "addr:postcode": "1044", "addr:street": "V\u00e1ci \u00fat", "air_conditioning": "yes", "amenity": "fuel", "brand": "MOL", "brand:wikidata": "Q549181", "brand:wikipedia": "hu:MOL Magyar Olaj- \u00e9s G\u00e1zipari Nyrt.", "compressed_air": "yes", "contact:facebook": "https://www.facebook.com/mol.magyarorszag/", "contact:instagram": "https://www.instagram.com/mol.magyarorszag/", "contact:phone": "+36 1 390 0140", "contact:website": "https://www.mol.hu", "contact:youtube": "https://www.youtube.com/user/molgrouptv", "food": "no", "fuel:GTL_diesel": "yes", "fuel:adblue": "no", "fuel:diesel": "yes", "fuel:lpg": "yes", "fuel:octane_100": "yes", "fuel:octane_95": "yes", "name": "MOL", "opening_hours": "Mo-Su 06:00-20:00", "operator": "MOL Nyrt.", "operator:addr": "1117 Budapest, Domb\u00f3v\u00e1ri \u00fat 28.", "payment:cash": "yes", "payment:contactless": "yes", "payment:maestro": "yes", "payment:mastercard": "yes", "payment:mastercard_contactless": "yes", "payment:mastercard_electronic": "yes", "payment:visa": "yes", "payment:visa_electron": "yes", "ref:HU:company": "01-10-041683", "ref:HU:vatin": "10625790-4-44", "rent:lpg_bottles": "yes", "source": "website", "source:date": "2022-05-21", "truck": "no"}}, {"type": "node", "id": 1944970761, "lat": 47.3548543, "lon": 18.6888238, "tags": {"amenity": "fuel", "name": "Castrol Oil", "shop": "yes"}}, {"type": "node", "id": 1957249108, "lat": 47.4651751, "lon": 19.0731163}, {"type": "node", "id": 1979476229, "lat": 47.3622755, "lon": 18.9096253, "tags": {"addr:city": "\u00c9rd", "addr:conscriptionnumber": "26297/2", "addr:postcode": "2030", "addr:street": "Ercsi \u00fat", "air_conditioning": "yes", "amenity": "fuel", "brand": "MOL", "brand:wikidata": "Q549181", "brand:wikipedia": "hu:MOL Magyar Olaj- \u00e9s G\u00e1zipari Nyrt.", "compressed_air": "yes", "contact:facebook": "https://www.facebook.com/mol.magyarorszag/", "contact:instagram": "https://www.instagram.com/mol.magyarorszag/", "contact:website": "https://www.mol.hu", "contact:youtube": "https://www.youtube.com/user/molgrouptv", "food": "yes", "fuel:GTL_diesel": "yes", "fuel:adblue": "no", "fuel:diesel": "yes", "fuel:lpg": "yes", "fuel:octane_100": "yes", "fuel:octane_95": "yes", "name": "MOL", "operator": "MOL Nyrt.", "operator:addr": "1117 Budapest, Domb\u00f3v\u00e1ri \u00fat 28.", "payment:cash": "yes", "payment:contactless": "yes", "payment:maestro": "yes", "payment:mastercard": "yes", "payment:mastercard_contactless": "yes", "payment:mastercard_electronic": "yes", "payment:visa": "yes", "payment:visa_electron": "yes", "ref:HU:company": "01-10-041683", "ref:HU:vatin": "10625790-4-44", "rent:lpg_bottles": "yes", "source": "website", "source:date": "2022-05-21", "truck": "no", "wheelchair": "yes"}}, {"type": "node", "id": 2005443352, "lat": 47.3675353, "lon": 18.9952579, "tags": {"amenity": "fuel", "brand": "Shell", "brand:wikidata": "Q154950", "brand:wikipedia": "en:Royal Dutch Shell", "name": "Shell", "operator": "Shell", "website": "https://www.shell.hu/", "wheelchair": "yes"}}, {"type": "node", "id": 2005973144, "lat": 47.6074167, "lon": 18.9427263}, {"type": "node", "id": 2005973146, "lat": 47.6073517, "lon": 18.9426639}, {"type": "node", "id": 2005973148, "lat": 47.607402, "lon": 18.9425488}, {"type": "node", "id": 2005973150, "lat": 47.6073071, "lon": 18.9429588}, {"type": "node", "id": 2005973159, "lat": 47.6074135, "lon": 18.9430611}, {"type": "node", "id": 2012264465, "lat": 47.6073764, "lon": 18.9426876}, {"type": "node", "id": 2014706131, "lat": 47.6074784, "lon": 18.9428951}, {"type": "node", "id": 2043138155, "lat": 47.5509404, "lon": 19.0445373, "tags": {"addr:city": "Budapest", "addr:housenumber": "1", "addr:postcode": "1033", "addr:street": "Ladik utca", "air_conditioning": "yes", "amenity": "fuel", "brand": "OMV", "brand:wikidata": "Q168238", "brand:wikipedia": "en:OMV", "compressed_air": "yes", "contact:email": "info.hungary@omv.com", "contact:facebook": "https://www.facebook.com/omvmagyarorszag", "contact:fax": "+36 1 381 9899", "contact:instagram": "https://www.instagram.com/omv/", "contact:linkedin": "https://www.linkedin.com/company/omv", "contact:twitter": "omv", "contact:website": "https://www.omv.hu", "contact:youtube": "https://www.youtube.com/user/omvofficial", "fuel:GTL_diesel": "yes", "fuel:diesel": "yes", "fuel:octane_100": "yes", "fuel:octane_95": "yes", "name": "OMV", "opening_hours": "24/7", "opening_hours:covid19": "same", "operator": "OMV Hung\u00e1ria Kft.", "operator:addr": "1117 Budapest, Okt\u00f3ber huszonharmadika utca 6-10 5. emelet 5/A.", "payment:cash": "yes", "payment:contactless": "yes", "payment:maestro": "yes", "payment:mastercard": "yes", "payment:mastercard_contactless": "yes", "payment:mastercard_electronic": "yes", "payment:visa": "yes", "payment:visa_electron": "yes", "ref:HU:company": "01-09-071584", "ref:HU:vatin": "10542925-2-44", "ref:vatin": "HU10542925", "source": "website", "source:date": "2020-10-03", "vacuum_cleaner": "yes", "wheelchair": "yes"}}, {"type": "node", "id": 2043143081, "lat": 47.5518675, "lon": 19.0446567, "tags": {"addr:city": "Budapest", "addr:housenumber": "59/A", "addr:postcode": "1033", "addr:street": "Szentendrei \u00fat", "air_conditioning": "yes", "amenity": "fuel", "brand": "MOL", "brand:wikidata": "Q549181", "brand:wikipedia": "hu:MOL Magyar Olaj- \u00e9s G\u00e1zipari Nyrt.", "compressed_air": "yes", "contact:facebook": "https://www.facebook.com/mol.magyarorszag/", "contact:instagram": "https://www.instagram.com/mol.magyarorszag/", "contact:website": "https://www.mol.hu", "contact:youtube": "https://www.youtube.com/user/molgrouptv", "food": "no", "fuel:GTL_diesel": "yes", "fuel:adblue": "no", "fuel:diesel": "yes", "fuel:lpg": "no", "fuel:octane_100": "yes", "fuel:octane_95": "yes", "name": "MOL", "operator": "MOL Nyrt.", "operator:addr": "1117 Budapest, Domb\u00f3v\u00e1ri \u00fat 28.", "payment:cash": "yes", "payment:contactless": "yes", "payment:maestro": "yes", "payment:mastercard": "yes", "payment:mastercard_contactless": "yes", "payment:mastercard_electronic": "yes", "payment:visa": "yes", "payment:visa_electron": "yes", "ref:HU:company": "01-10-041683", "ref:HU:vatin": "10625790-4-44", "rent:lpg_bottles": "no", "source": "website", "source:date": "2022-05-21", "truck": "no", "wheelchair": "yes"}}, {"type": "node", "id": 2063488151, "lat": 47.4554728, "lon": 19.087005}, {"type": "node", "id": 2129793657, "lat": 47.5409395, "lon": 18.7235398, "tags": {"addr:city": "Zs\u00e1mb\u00e9k", "addr:housenumber": "578/A", "addr:postcode": "2072", "addr:street": "Herceghalmi \u00fat", "air_conditioning": "yes", "amenity": "fuel", "brand": "OMV", "brand:wikidata": "Q168238", "brand:wikipedia": "en:OMV", "compressed_air": "yes", "contact:email": "info.hungary@omv.com", "contact:facebook": "https://www.facebook.com/omvmagyarorszag", "contact:fax": "+36 1 381 9899", "contact:instagram": "https://www.instagram.com/omv/", "contact:linkedin": "https://www.linkedin.com/company/omv", "contact:phone": "+36 23 565 070", "contact:twitter": "omv", "contact:website": "https://www.omv.hu", "contact:youtube": "https://www.youtube.com/user/omvofficial", "fuel:GTL_diesel": "yes", "fuel:HGV_diesel": "yes", "fuel:diesel": "yes", "fuel:octane_100": "yes", "fuel:octane_95": "yes", "fuel:octane_98": "yes", "name": "OMV", "opening_hours": "24/7", "opening_hours:covid19": "same", "operator": "OMV Hung\u00e1ria Kft.", "operator:addr": "1117 Budapest, Okt\u00f3ber huszonharmadika utca 6-10 5. emelet 5/A.", "payment:cash": "yes", "payment:contactless": "yes", "payment:maestro": "yes", "payment:mastercard": "yes", "payment:mastercard_contactless": "yes", "payment:mastercard_electronic": "yes", "payment:visa": "yes", "payment:visa_electron": "yes", "ref:HU:company": "01-09-071584", "ref:HU:vatin": "10542925-2-44", "ref:vatin": "HU10542925", "source": "website", "source:date": "2020-10-03", "wheelchair": "yes"}}, {"type": "node", "id": 2197722989, "lat": 47.5425429, "lon": 19.150409}, {"type": "node", "id": 2197722995, "lat": 47.5425972, "lon": 19.1503132}, {"type": "node", "id": 2197723179, "lat": 47.5424524, "lon": 19.150409}, {"type": "node", "id": 2197723238, "lat": 47.5424669, "lon": 19.1502373}, {"type": "node", "id": 2197723277, "lat": 47.5424343, "lon": 19.1506289}, {"type": "node", "id": 2197723301, "lat": 47.5422786, "lon": 19.1503982}, {"type": "node", "id": 2197723398, "lat": 47.5425055, "lon": 19.1505717}, {"type": "node", "id": 2197723462, "lat": 47.5423836, "lon": 19.150468}, {"type": "node", "id": 2197723521, "lat": 47.5425261, "lon": 19.1505343}, {"type": "node", "id": 2197723607, "lat": 47.5425212, "lon": 19.1501354}, {"type": "node", "id": 2197723716, "lat": 47.542322, "lon": 19.1506289}, {"type": "node", "id": 2197723844, "lat": 47.5425448, "lon": 19.150246}, {"type": "node", "id": 2197723867, "lat": 47.542514, "lon": 19.1502963}, {"type": "node", "id": 2197723879, "lat": 47.5423631, "lon": 19.1503615}, {"type": "node", "id": 2197723933, "lat": 47.542485, "lon": 19.1503553}, {"type": "node", "id": 2197723945, "lat": 47.542427, "lon": 19.1504411}, {"type": "node", "id": 2197723952, "lat": 47.5424257, "lon": 19.1505815}, {"type": "node", "id": 2197723967, "lat": 47.5425704, "lon": 19.1501983}, {"type": "node", "id": 2197724081, "lat": 47.5424669, "lon": 19.1506021}, {"type": "node", "id": 2197724093, "lat": 47.5425393, "lon": 19.1504616}, {"type": "node", "id": 2197771280, "lat": 47.5147342, "lon": 19.146561}, {"type": "node", "id": 2197771286, "lat": 47.5172617, "lon": 19.1439145}, {"type": "node", "id": 2197771287, "lat": 47.5147105, "lon": 19.1463471}, {"type": "node", "id": 2197771317, "lat": 47.5135075, "lon": 19.1511629}, {"type": "node", "id": 2197771320, "lat": 47.5134712, "lon": 19.1510395}, {"type": "node", "id": 2197771326, "lat": 47.517213, "lon": 19.1439676}, {"type": "node", "id": 2197771328, "lat": 47.514725, "lon": 19.1464544}, {"type": "node", "id": 2197771361, "lat": 47.5146671, "lon": 19.1465832}, {"type": "node", "id": 2197771374, "lat": 47.51462, "lon": 19.1468138}, {"type": "node", "id": 2197771388, "lat": 47.5147287, "lon": 19.1464759}, {"type": "node", "id": 2197771396, "lat": 47.5146272, "lon": 19.1466314}, {"type": "node", "id": 2197771427, "lat": 47.5171336, "lon": 19.1436569}, {"type": "node", "id": 2197771443, "lat": 47.5134895, "lon": 19.1513459}, {"type": "node", "id": 2197771447, "lat": 47.5146856, "lon": 19.146621}, {"type": "node", "id": 2197771449, "lat": 47.5133622, "lon": 19.1514192}, {"type": "node", "id": 2197771460, "lat": 47.5145004, "lon": 19.1465993}, {"type": "node", "id": 2197771468, "lat": 47.5147431, "lon": 19.1464061}, {"type": "node", "id": 2197771480, "lat": 47.5132901, "lon": 19.1511522}, {"type": "node", "id": 2197771481, "lat": 47.5146816, "lon": 19.1467334}, {"type": "node", "id": 2197771486, "lat": 47.5170849, "lon": 19.14371}, {"type": "node", "id": 2197771492, "lat": 47.5134495, "lon": 19.1511951}, {"type": "node", "id": 2197771502, "lat": 47.5147142, "lon": 19.1465188}, {"type": "node", "id": 2209799633, "lat": 47.4118674, "lon": 19.0561299, "tags": {"addr:city": "Budapest", "addr:housenumber": "195-197", "addr:postcode": "1214", "addr:street": "II. R\u00e1k\u00f3czi Ferenc \u00fat", "amenity": "fuel", "brand": "Avia", "brand:wikidata": "Q300147", "brand:wikipedia": "de:Avia International", "compressed_air": "yes", "contact:email": "avia@avia.hu", "contact:facebook": "https://www.facebook.com/AVIAHungary", "contact:fax": "+36 1 420 6675", "contact:phone": "+36 20 283 0585", "contact:website": "https://www.avia.hu/toltoallomas/?id=140", "contact:youtube": "https://www.youtube.com/channel/UCjvjkjf2RgmKBuTnKSXk-Rg", "food": "no", "fuel:diesel": "yes", "fuel:e85": "no", "fuel:lpg": "no", "fuel:octane_95": "yes", "fuel:octane_98": "no", "name": "Avia", "operator": "AVIA Hung\u00e1ria Kft.", "payment:cash": "yes", "payment:contactless": "yes", "payment:maestro": "yes", "payment:mastercard": "yes", "payment:mastercard_contactless": "yes", "payment:mastercard_electronic": "yes", "payment:visa": "yes", "payment:visa_electron": "yes", "rent:lpg_bottles": "no", "restaurant": "no", "source": "website", "source:date": "2021-12-17", "truck": "no"}}, {"type": "node", "id": 2210372637, "lat": 47.4014385, "lon": 19.0511623, "tags": {"addr:city": "Budapest", "addr:country": "HU", "addr:housenumber": "277", "addr:postcode": "1214", "addr:street": "II. R\u00e1k\u00f3czi Ferenc \u00fat", "amenity": "fuel", "brand": "Auchan", "brand:wikidata": "Q758603", "brand:wikipedia": "en:Auchan", "contact:email": "info@mobilpetrol.com", "contact:website": "http://www.mpetrol.com", "fuel:diesel": "yes", "fuel:octane_95": "yes", "fuel:octane_98": "yes", "name": "Auchan", "opening_hours": "24/7", "operator": "Auchan", "self_service": "yes"}}, {"type": "node", "id": 2266896202, "lat": 47.4565709, "lon": 18.9008738, "tags": {"amenity": "fuel", "compressed_air": "no", "name": "Envi"}}, {"type": "node", "id": 2271032004, "lat": 47.5527808, "lon": 19.0301988, "tags": {"addr:city": "Budapest", "addr:housenumber": "5", "addr:postcode": "1037", "addr:street": "Zay utca", "amenity": "fuel", "brand": "Dallas Benzinkutak", "email": "dallaskutak@dallaskutak.hu", "name": "Dallas Benzink\u00fat", "opening_hours": "Mo,We,Th,Sa,Su 06:00-22:00; Tu,Fr 06:00-23:00", "phone": "+36 30 643 7726", "website": "http://www.dallaskutak.hu/"}}, {"type": "node", "id": 2272143938, "lat": 47.4851444, "lon": 19.0747641, "tags": {"addr:city": "Budapest", "addr:housenumber": "52", "addr:postcode": "1082", "addr:street": "Fut\u00f3 utca", "air_conditioning": "yes", "amenity": "fuel", "brand": "MOL", "brand:wikidata": "Q549181", "brand:wikipedia": "hu:MOL Magyar Olaj- \u00e9s G\u00e1zipari Nyrt.", "compressed_air": "yes", "contact:facebook": "https://www.facebook.com/mol.magyarorszag/", "contact:instagram": "https://www.instagram.com/mol.magyarorszag/", "contact:website": "https://www.mol.hu", "contact:youtube": "https://www.youtube.com/user/molgrouptv", "food": "no", "fuel:GTL_diesel": "yes", "fuel:adblue": "no", "fuel:diesel": "yes", "fuel:lpg": "no", "fuel:octane_100": "yes", "fuel:octane_95": "yes", "name": "MOL", "opening_hours": "Mo-Su 06:00-22:00", "operator": "MOL Nyrt.", "operator:addr": "1117 Budapest, Domb\u00f3v\u00e1ri \u00fat 28.", "payment:cash": "yes", "payment:contactless": "yes", "payment:maestro": "yes", "payment:mastercard": "yes", "payment:mastercard_contactless": "yes", "payment:mastercard_electronic": "yes", "payment:visa": "yes", "payment:visa_electron": "yes", "ref:HU:company": "01-10-041683", "ref:HU:vatin": "10625790-4-44", "rent:lpg_bottles": "no", "source": "website", "source:date": "2022-05-21", "truck": "no", "wheelchair": "yes"}}, {"type": "node", "id": 2284365769, "lat": 47.4182024, "lon": 19.0639132}, {"type": "node", "id": 2284365774, "lat": 47.4184101, "lon": 19.0639812}, {"type": "node", "id": 2284365775, "lat": 47.4184162, "lon": 19.063554}, {"type": "node", "id": 2284365776, "lat": 47.4184259, "lon": 19.0642038}, {"type": "node", "id": 2284365780, "lat": 47.4184937, "lon": 19.0640899}, {"type": "node", "id": 2284365782, "lat": 47.4185561, "lon": 19.0637359}, {"type": "node", "id": 2292544887, "lat": 47.4190593, "lon": 19.0745723}, {"type": "node", "id": 2292544888, "lat": 47.4190645, "lon": 19.0744607}, {"type": "node", "id": 2292544890, "lat": 47.4190983, "lon": 19.0745014}, {"type": "node", "id": 2292544894, "lat": 47.4191358, "lon": 19.0743312}, {"type": "node", "id": 2292544896, "lat": 47.4191502, "lon": 19.0746816}, {"type": "node", "id": 2292544897, "lat": 47.4191557, "lon": 19.0743552}, {"type": "node", "id": 2292544903, "lat": 47.4192423, "lon": 19.0741979}, {"type": "node", "id": 2292544910, "lat": 47.4192579, "lon": 19.074486}, {"type": "node", "id": 2292544912, "lat": 47.4192648, "lon": 19.0744943}, {"type": "node", "id": 2292544914, "lat": 47.419354, "lon": 19.0743322}, {"type": "node", "id": 2300526724, "lat": 47.4686787, "lon": 19.083197}, {"type": "node", "id": 2300526727, "lat": 47.4687662, "lon": 19.0833967}, {"type": "node", "id": 2300526729, "lat": 47.4687999, "lon": 19.0833645}, {"type": "node", "id": 2300526730, "lat": 47.4688207, "lon": 19.0835426}, {"type": "node", "id": 2300526733, "lat": 47.4688492, "lon": 19.0836075}, {"type": "node", "id": 2300526734, "lat": 47.468861, "lon": 19.0835039}, {"type": "node", "id": 2300526738, "lat": 47.4689243, "lon": 19.0829613}, {"type": "node", "id": 2300526740, "lat": 47.4689836, "lon": 19.0831913}, {"type": "node", "id": 2300526742, "lat": 47.4690013, "lon": 19.0833777}, {"type": "node", "id": 2300526745, "lat": 47.4690128, "lon": 19.0831632}, {"type": "node", "id": 2300526747, "lat": 47.4690272, "lon": 19.0834367}, {"type": "node", "id": 2300526749, "lat": 47.4690463, "lon": 19.0833345}, {"type": "node", "id": 2303163368, "lat": 47.4069612, "lon": 18.8911468}, {"type": "node", "id": 2303163370, "lat": 47.4068903, "lon": 18.8912338}, {"type": "node", "id": 2303163372, "lat": 47.4068448, "lon": 18.8911547}, {"type": "node", "id": 2303163382, "lat": 47.40704, "lon": 18.8909205}, {"type": "node", "id": 2303163385, "lat": 47.4070836, "lon": 18.8910005}, {"type": "node", "id": 2303163387, "lat": 47.4070549, "lon": 18.891036}, {"type": "node", "id": 2317644327, "lat": 47.462359, "lon": 19.1322432}, {"type": "node", "id": 2317644332, "lat": 47.4624748, "lon": 19.1324331}, {"type": "node", "id": 2317644337, "lat": 47.4625333, "lon": 19.132355}, {"type": "node", "id": 2320296471, "lat": 47.641611, "lon": 19.0672673}, {"type": "node", "id": 2320296473, "lat": 47.6416591, "lon": 19.067108}, {"type": "node", "id": 2320296474, "lat": 47.6416633, "lon": 19.067302}, {"type": "node", "id": 2320296476, "lat": 47.6416864, "lon": 19.0672252}, {"type": "node", "id": 2320296477, "lat": 47.6417043, "lon": 19.067138}, {"type": "node", "id": 2320296478, "lat": 47.6417149, "lon": 19.0671028}, {"type": "node", "id": 2320296482, "lat": 47.6418133, "lon": 19.0671917}, {"type": "node", "id": 2320296483, "lat": 47.6418192, "lon": 19.0671721}, {"type": "node", "id": 2320296488, "lat": 47.6418746, "lon": 19.0673502}, {"type": "node", "id": 2320296490, "lat": 47.6419041, "lon": 19.067252}, {"type": "node", "id": 2327680534, "lat": 47.4214361, "lon": 19.1059032, "tags": {"addr:city": "Budapest", "addr:housenumber": "108-112", "addr:postcode": "1238", "addr:street": "Helsinki \u00fat", "air_conditioning": "yes", "amenity": "fuel", "brand": "MOL", "brand:wikidata": "Q549181", "brand:wikipedia": "en:MOL (company)", "compressed_air": "yes", "contact:facebook": "https://www.facebook.com/mol.magyarorszag/", "contact:instagram": "https://www.instagram.com/mol.magyarorszag/", "contact:website": "https://www.mol.hu", "contact:youtube": "https://www.youtube.com/user/molgrouptv", "food": "no", "fuel:GTL_diesel": "yes", "fuel:adblue": "no", "fuel:diesel": "yes", "fuel:lpg": "yes", "fuel:octane_100": "yes", "fuel:octane_95": "yes", "fuel:octane_98": "yes", "name": "MOL", "operator": "MOL Nyrt.", "operator:addr": "1117 Budapest, Domb\u00f3v\u00e1ri \u00fat 28.", "payment:cash": "yes", "payment:contactless": "yes", "payment:maestro": "yes", "payment:mastercard": "yes", "payment:mastercard_contactless": "yes", "payment:mastercard_electronic": "yes", "payment:visa": "yes", "payment:visa_electron": "yes", "ref:HU:company": "01-10-041683", "ref:HU:vatin": "10625790-4-44", "rent:lpg_bottles": "yes", "source": "website", "source:date": "2022-05-21", "truck": "no", "wheelchair": "yes"}}, {"type": "node", "id": 2339849099, "lat": 47.4927593, "lon": 18.6416375, "tags": {"addr:city": "Bicske", "addr:postcode": "2060", "addr:street": "Botond t\u00e9r", "air_conditioning": "yes", "amenity": "fuel", "brand": "MOL", "brand:wikidata": "Q549181", "brand:wikipedia": "hu:MOL Magyar Olaj- \u00e9s G\u00e1zipari Nyrt.", "compressed_air": "yes", "contact:facebook": "https://www.facebook.com/mol.magyarorszag/", "contact:instagram": "https://www.instagram.com/mol.magyarorszag/", "contact:website": "https://www.mol.hu", "contact:youtube": "https://www.youtube.com/user/molgrouptv", "food": "no", "fuel:GTL_diesel": "yes", "fuel:adblue": "no", "fuel:diesel": "yes", "fuel:lpg": "no", "fuel:octane_100": "yes", "fuel:octane_95": "yes", "name": "MOL", "operator": "MOL Nyrt.", "operator:addr": "1117 Budapest, Domb\u00f3v\u00e1ri \u00fat 28.", "payment:cash": "yes", "payment:contactless": "yes", "payment:maestro": "yes", "payment:mastercard": "yes", "payment:mastercard_contactless": "yes", "payment:mastercard_electronic": "yes", "payment:visa": "yes", "payment:visa_electron": "yes", "ref:HU:company": "01-10-041683", "ref:HU:vatin": "10625790-4-44", "rent:lpg_bottles": "yes", "source": "website", "source:date": "2022-05-21", "truck": "no"}}, {"type": "node", "id": 2363319356, "lat": 47.5643399, "lon": 19.144794, "tags": {"amenity": "fuel", "brand": "ENVI", "fuel:diesel": "yes", "fuel:octane_95": "yes", "shop": "no"}}, {"type": "node", "id": 2366450330, "lat": 47.6207353, "lon": 19.0629979, "tags": {"amenity": "fuel", "name": "BSS"}}, {"type": "node", "id": 2377743220, "lat": 47.6061918, "lon": 19.1126153}, {"type": "node", "id": 2377743224, "lat": 47.605856, "lon": 19.1127031}, {"type": "node", "id": 2377743244, "lat": 47.6061592, "lon": 19.1125054}, {"type": "node", "id": 2377743258, "lat": 47.6058885, "lon": 19.112813}, {"type": "node", "id": 2379994801, "lat": 47.6709795, "lon": 19.0730123, "tags": {"amenity": "fuel", "description": "Automata, \u00f6nkiszolg\u00e1l\u00f3 k\u00fat.", "fuel:diesel": "yes", "fuel:octane_95": "yes", "name": "Avia Automata"}}, {"type": "node", "id": 2387126750, "lat": 47.381771, "lon": 18.9050541}, {"type": "node", "id": 2387126754, "lat": 47.3818385, "lon": 18.9053363}, {"type": "node", "id": 2387126757, "lat": 47.3819027, "lon": 18.9050627}, {"type": "node", "id": 2387126761, "lat": 47.3819608, "lon": 18.9053058}, {"type": "node", "id": 2398078063, "lat": 47.4582428, "lon": 19.1147717}, {"type": "node", "id": 2398078066, "lat": 47.4584018, "lon": 19.1146332}, {"type": "node", "id": 2398078067, "lat": 47.4582839, "lon": 19.1145784}, {"type": "node", "id": 2398078068, "lat": 47.4582319, "lon": 19.1148231}, {"type": "node", "id": 2398078069, "lat": 47.4583498, "lon": 19.1148779}, {"type": "node", "id": 2448557139, "lat": 47.511983, "lon": 19.035938, "tags": {"addr:city": "Budapest", "addr:housenumber": "1-3", "addr:postcode": "1027", "addr:street": "T\u00f6lgyfa utca", "air_conditioning": "yes", "amenity": "fuel", "brand": "OMV", "brand:wikidata": "Q168238", "brand:wikipedia": "en:OMV", "compressed_air": "yes", "contact:email": "info.hungary@omv.com", "contact:facebook": "https://www.facebook.com/omvmagyarorszag", "contact:fax": "+36 1 381 9899", "contact:instagram": "https://www.instagram.com/omv/", "contact:linkedin": "https://www.linkedin.com/company/omv", "contact:twitter": "omv", "contact:website": "https://www.omv.hu", "contact:youtube": "https://www.youtube.com/user/omvofficial", "fuel:GTL_diesel": "yes", "fuel:diesel": "yes", "fuel:octane_100": "yes", "fuel:octane_95": "yes", "name": "OMV", "opening_hours": "24/7", "opening_hours:covid19": "same", "operator": "OMV Hung\u00e1ria Kft.", "operator:addr": "1117 Budapest, Okt\u00f3ber huszonharmadika utca 6-10 5. emelet 5/A.", "payment:cash": "yes", "payment:contactless": "yes", "payment:maestro": "yes", "payment:mastercard": "yes", "payment:mastercard_contactless": "yes", "payment:mastercard_electronic": "yes", "payment:visa": "yes", "payment:visa_electron": "yes", "ref:HU:company": "01-09-071584", "ref:HU:vatin": "10542925-2-44", "ref:vatin": "HU10542925", "source": "website", "source:date": "2020-10-03"}}, {"type": "node", "id": 2460205113, "lat": 47.4518268, "lon": 19.1565277}, {"type": "node", "id": 2460205114, "lat": 47.4517672, "lon": 19.1564146}, {"type": "node", "id": 2460205115, "lat": 47.4518342, "lon": 19.1563373}, {"type": "node", "id": 2460205116, "lat": 47.45193, "lon": 19.1567234}, {"type": "node", "id": 2460205122, "lat": 47.4519971, "lon": 19.1566461}, {"type": "node", "id": 2471451467, "lat": 47.5337359, "lon": 19.1026374}, {"type": "node", "id": 2471451470, "lat": 47.5336896, "lon": 19.1027773}, {"type": "node", "id": 2471451473, "lat": 47.5338262, "lon": 19.1028763}, {"type": "node", "id": 2471451475, "lat": 47.5338724, "lon": 19.1027364}, {"type": "node", "id": 2480029297, "lat": 47.5382392, "lon": 19.0837681}, {"type": "node", "id": 2480029298, "lat": 47.5381573, "lon": 19.0840939}, {"type": "node", "id": 2480029299, "lat": 47.5380764, "lon": 19.0839778}, {"type": "node", "id": 2480029300, "lat": 47.5380343, "lon": 19.0839545}, {"type": "node", "id": 2480029301, "lat": 47.5380274, "lon": 19.083972}, {"type": "node", "id": 2480029302, "lat": 47.5378894, "lon": 19.0838959}, {"type": "node", "id": 2480029303, "lat": 47.5379263, "lon": 19.0837488}, {"type": "node", "id": 2480029304, "lat": 47.5379656, "lon": 19.0837705}, {"type": "node", "id": 2480029305, "lat": 47.5379795, "lon": 19.0837153}, {"type": "node", "id": 2480029306, "lat": 47.5381365, "lon": 19.0838019}, {"type": "node", "id": 2480029307, "lat": 47.5381565, "lon": 19.0837225}, {"type": "node", "id": 2499271441, "lat": 47.45127, "lon": 19.0390491}, {"type": "node", "id": 2499271442, "lat": 47.4510872, "lon": 19.0389974}, {"type": "node", "id": 2499271443, "lat": 47.4511471, "lon": 19.0385393}, {"type": "node", "id": 2499271444, "lat": 47.4513175, "lon": 19.0386835}, {"type": "node", "id": 2499271445, "lat": 47.4512739, "lon": 19.0390228}, {"type": "node", "id": 2499271454, "lat": 47.451315, "lon": 19.0387046}, {"type": "node", "id": 2505795788, "lat": 47.5168481, "lon": 18.9986199}, {"type": "node", "id": 2505795789, "lat": 47.5166616, "lon": 18.9989435}, {"type": "node", "id": 2505795790, "lat": 47.5165405, "lon": 18.9988067}, {"type": "node", "id": 2505795791, "lat": 47.5166431, "lon": 18.9986076}, {"type": "node", "id": 2505795793, "lat": 47.5166631, "lon": 18.9986302}, {"type": "node", "id": 2510639189, "lat": 47.5079421, "lon": 19.0284527}, {"type": "node", "id": 2510639190, "lat": 47.5079322, "lon": 19.0285138}, {"type": "node", "id": 2510639191, "lat": 47.5078458, "lon": 19.028483}, {"type": "node", "id": 2510639192, "lat": 47.5078557, "lon": 19.028422}, {"type": "node", "id": 2520362147, "lat": 47.5215738, "lon": 19.0623412}, {"type": "node", "id": 2520362150, "lat": 47.5216693, "lon": 19.0625755}, {"type": "node", "id": 2529909184, "lat": 47.4694829, "lon": 19.1456632, "tags": {"addr:city": "Budapest", "addr:housenumber": "56-62", "addr:postcode": "1103", "addr:street": "Gy\u00f6mr\u0151i \u00fat", "amenity": "fuel", "building": "yes", "name": "Orlen", "operator": "Normbenz Magyarorsz\u00e1g Kft.", "website": "https://orlen.hu/"}}, {"type": "node", "id": 2537287745, "lat": 47.4893201, "lon": 19.0872804}, {"type": "node", "id": 2537287746, "lat": 47.4893272, "lon": 19.0873966}, {"type": "node", "id": 2537287747, "lat": 47.4893785, "lon": 19.0873898}, {"type": "node", "id": 2537287748, "lat": 47.4893715, "lon": 19.0872735}, {"type": "node", "id": 2552800939, "lat": 47.5613859, "lon": 19.0244414}, {"type": "node", "id": 2552800941, "lat": 47.5610437, "lon": 19.0245893}, {"type": "node", "id": 2552800943, "lat": 47.5611109, "lon": 19.0249305}, {"type": "node", "id": 2552800945, "lat": 47.5614161, "lon": 19.0248355}, {"type": "node", "id": 2552800960, "lat": 47.5612109, "lon": 19.024517}, {"type": "node", "id": 2555649738, "lat": 47.5018083, "lon": 18.9191373}, {"type": "node", "id": 2555649745, "lat": 47.5017857, "lon": 18.9191157}, {"type": "node", "id": 2555649749, "lat": 47.5017621, "lon": 18.9193647}, {"type": "node", "id": 2555649755, "lat": 47.5016052, "lon": 18.9192145}, {"type": "node", "id": 2555649757, "lat": 47.5015803, "lon": 18.9190529}, {"type": "node", "id": 2555649758, "lat": 47.5017291, "lon": 18.9189294}, {"type": "node", "id": 2555649774, "lat": 47.5018133, "lon": 18.9192476}, {"type": "node", "id": 2555649777, "lat": 47.501849, "lon": 18.9190441}, {"type": "node", "id": 2555649779, "lat": 47.5016477, "lon": 18.9191174}, {"type": "node", "id": 2555649790, "lat": 47.5016432, "lon": 18.9189087}, {"type": "node", "id": 2555649796, "lat": 47.5017102, "lon": 18.9189727}, {"type": "node", "id": 2564361033, "lat": 47.5168007, "lon": 18.9986736}, {"type": "node", "id": 2564361034, "lat": 47.5168132, "lon": 18.9986878}, {"type": "node", "id": 2564361036, "lat": 47.5167345, "lon": 18.9984916}, {"type": "node", "id": 2567526808, "lat": 47.4969397, "lon": 19.0242938}, {"type": "node", "id": 2567526809, "lat": 47.4969426, "lon": 19.02425}, {"type": "node", "id": 2567526810, "lat": 47.4969536, "lon": 19.0240858}, {"type": "node", "id": 2567526811, "lat": 47.4970255, "lon": 19.0243064}, {"type": "node", "id": 2567526812, "lat": 47.4970394, "lon": 19.0240984}, {"type": "node", "id": 2571740919, "lat": 47.4656205, "lon": 19.1533522}, {"type": "node", "id": 2571740926, "lat": 47.465702, "lon": 19.1531399}, {"type": "node", "id": 2579721498, "lat": 47.4659118, "lon": 19.153597}, {"type": "node", "id": 2579721522, "lat": 47.4659791, "lon": 19.1534219}, {"type": "node", "id": 2579721524, "lat": 47.4659933, "lon": 19.1533847}, {"type": "node", "id": 2587867822, "lat": 47.5532492, "lon": 19.0278488},