{"version": 0.6, "generator": "Overpass API 0.7.59 e21c39fe", "osm3s": {"timestamp_osm_base": "2023-01-20T17:59:09Z", "copyright": "The data included in this document is from www.openstreetmap.org. The data is made available under ODbL."}, "elements": [{"type": "node", "id": 1214633526, "lat": 47.6515184, "lon": 16.6654125, "tags": {"addr:city": "Sopron", "addr:housenumber": "27", "addr:postcode": "9494", "addr:street": "F\u0151 utca", "addr:suburb": "Balf", "amenity": "library", "name": "Balfi Adom\u00e1nyk\u00f6nyvt\u00e1r", "opening_hours": "We,Fr 17:00-19:00"}}, {"type": "node", "id": 2312995298, "lat": 47.6190707, "lon": 16.8653252, "tags": {"amenity": "library", "name": "Fert\u0151d V\u00e1rosi K\u00f6nyvt\u00e1r"}}, {"type": "node", "id": 2828556402, "lat": 47.6123357, "lon": 17.2523264, "tags": {"amenity": "library", "name": "Martincsevics K\u00e1roly V\u00e1rosi K\u00f6nyvt\u00e1r", "wheelchair": "no"}}, {"type": "node", "id": 3087883945, "lat": 47.5925264, "lon": 17.0265266, "tags": {"amenity": "library"}}, {"type": "node", "id": 3761211583, "lat": 47.5848453, "lon": 16.878281, "tags": {"amenity": "library", "name": "Iskolai k\u00f6nyvt\u00e1r"}}, {"type": "node", "id": 3761211584, "lat": 47.5861829, "lon": 16.8791915, "tags": {"amenity": "library", "name": "V\u00e1rosi k\u00f6nyvt\u00e1r", "toilets:wheelchair": "yes", "wheelchair": "yes"}}, {"type": "node", "id": 4706658331, "lat": 47.6908439, "lon": 17.247258}, {"type": "node", "id": 4706658332, "lat": 47.6909473, "lon": 17.2473808}, {"type": "node", "id": 4706658333, "lat": 47.6908822, "lon": 17.247502}, {"type": "node", "id": 4706658334, "lat": 47.6907786, "lon": 17.2473792}, {"type": "node", "id": 6421654004, "lat": 47.5627903, "lon": 17.1839248, "tags": {"addr:city": "Bogyoszl\u00f3", "addr:country": "HU", "addr:district": "Csornai j\u00e1r\u00e1s", "addr:housenumber": "2", "addr:postcode": "9324", "addr:province": "Gy\u0151r-Moson-Sopron megye", "addr:street": "Zr\u00ednyi utca", "amenity": "library", "fax": "+36 96 282 111", "name": "K\u00f6zs\u00e9gi K\u00f6nyvt\u00e1r", "opening_hours": "Mo 13:00-17:00; Tu,Th 13:00-18:00; We,Sa 14:00-19:00", "operator": "Bogyoszl\u00f3", "phone": "+36 96 282 111", "url": "https://www.bogyoszlo.hu/index.php?option=com_content&view=article&id=12&Itemid=18", "website": "https://sites.google.com/site/bogyoszlo1990emagyarorszag/home"}}, {"type": "node", "id": 9164706295, "lat": 47.4258524, "lon": 17.2309378, "tags": {"amenity": "library"}}, {"type": "way", "id": 477288935, "nodes": [4706658331, 4706658332, 4706658333, 4706658334, 4706658331], "tags": {"addr:city": "B\u0151s\u00e1rk\u00e1ny", "amenity": "library", "building": "public", "name": "K\u00f6nyvt\u00e1r"}}]}