{"version": 0.6, "generator": "Overpass API 0.7.59 e21c39fe", "osm3s": {"timestamp_osm_base": "2023-01-20T17:57:01Z", "copyright": "The data included in this document is from www.openstreetmap.org. The data is made available under ODbL."}, "elements": [{"type": "node", "id": 2260057374, "lat": 46.7118881, "lon": 19.8499536}, {"type": "node", "id": 2260057382, "lat": 46.7119308, "lon": 19.8504427}, {"type": "node", "id": 2260057388, "lat": 46.7116592, "lon": 19.8504931}, {"type": "node", "id": 2260057394, "lat": 46.7116166, "lon": 19.850004}, {"type": "node", "id": 2975548345, "lat": 46.7090088, "lon": 20.1491721, "tags": {"addr:city": "Csongr\u00e1d", "addr:postcode": "6640", "entrance": "main", "wheelchair": "yes"}}, {"type": "node", "id": 3210888640, "lat": 46.6015918, "lon": 20.110474, "tags": {"addr:street": "Szent L\u00e1szl\u00f3 utca", "amenity": "library", "name": "K\u00f6zs\u00e9gi K\u00f6nyvt\u00e1r"}}, {"type": "node", "id": 3668562516, "lat": 46.5812343, "lon": 20.3589445, "tags": {"amenity": "library"}}, {"type": "node", "id": 6745917014, "lat": 46.7093504, "lon": 20.149048}, {"type": "node", "id": 6745917015, "lat": 46.7093255, "lon": 20.1492472}, {"type": "node", "id": 6745917016, "lat": 46.7091287, "lon": 20.148989}, {"type": "node", "id": 6745917022, "lat": 46.7091762, "lon": 20.1486585}, {"type": "node", "id": 6745917023, "lat": 46.7090847, "lon": 20.1486311}, {"type": "node", "id": 6745917035, "lat": 46.7093431, "lon": 20.1491017}, {"type": "node", "id": 6783670397, "lat": 46.8443165, "lon": 20.2929173, "tags": {"amenity": "library"}}, {"type": "node", "id": 7903401833, "lat": 46.6526637, "lon": 20.2668089, "tags": {"addr:city": "Szentes", "addr:housenumber": "33-35", "addr:postcode": "6600", "addr:street": "Kossuth Lajos utca", "amenity": "library", "name": "Szentes V\u00e1rosi K\u00f6nyvt\u00e1r", "opening_hours": "Mo 14:00-18:00; Tu-Fr 10:00-18:00; Sa 08:00-12:00; PH off; Jun 20-Aug 21 Mo-Fr 08:00-16:00; Jun 20-Aug 21 Sa 08:00-12:00", "operator": "Szentes V\u00e1rosi K\u00f6nyvt\u00e1r Nonprofit K\u00f6zhaszn\u00fa Kft.", "phone": "+36 63 314 795", "website": "http://www.vksz.hu/", "wheelchair": "yes", "wikidata": "Q1296832", "wikipedia": "hu:Szentes V\u00e1rosi K\u00f6nyvt\u00e1r"}}, {"type": "node", "id": 8147478785, "lat": 46.9301313, "lon": 20.1015984}, {"type": "node", "id": 8147478786, "lat": 46.9299934, "lon": 20.1015429}, {"type": "node", "id": 8147478787, "lat": 46.9300189, "lon": 20.1014072}, {"type": "node", "id": 8147478788, "lat": 46.9301568, "lon": 20.1014628}, {"type": "node", "id": 8787608171, "lat": 46.8688507, "lon": 20.2086157, "tags": {"addr:city": "Cserkesz\u0151l\u0151", "addr:housenumber": "1/A", "addr:postcode": "5465", "addr:street": "Ady Endre \u00fat", "amenity": "library", "contact:phone": "+36 56 568 451 w 470", "contact:website": "https://www.cserkeszolo.hu/ps-amk-cserkeszolo", "fixme": "position", "name": "PS \u00c1MK Cserkesz\u0151l\u0151 K\u00f6nyvt\u00e1r- \u00e9s K\u00f6zm\u0171vel\u0151d\u00e9s"}}, {"type": "way", "id": 216612848, "nodes": [2260057388, 2260057382, 2260057374, 2260057394, 2260057388], "tags": {"addr:city": "Kiskunf\u00e9legyh\u00e1za", "amenity": "library", "building": "public", "designation": "Pet\u0151fi S\u00e1ndor V\u00e1rosi K\u00f6nyvt\u00e1r \u00e9s M\u0171vel\u0151d\u00e9si K\u00f6zpont", "name": "Pet\u0151fi S\u00e1ndor V\u00e1rosi K\u00f6nyvt\u00e1r", "source": "http://www.psvk.hu/webportal/"}}, {"type": "way", "id": 718341945, "nodes": [6745917014, 6745917035, 6745917015, 2975548345, 6745917023, 6745917022, 6745917016, 6745917014], "tags": {"addr:city": "Csongr\u00e1d", "addr:housenumber": "12", "addr:postcode": "6640", "addr:street": "Szenth\u00e1roms\u00e1g t\u00e9r", "amenity": "library", "building": "civic", "building:levels": "1", "name": "Csongr\u00e1di Inform\u00e1ci\u00f3s K\u00f6zpont Csemegi K\u00e1roly K\u00f6nyvt\u00e1r", "operator": "Csongr\u00e1d V\u00e1ros \u00d6nkorm\u00e1nyzata", "website": "http://www.konyvtar.csongrad.hu", "wheelchair": "yes"}}, {"type": "way", "id": 875317972, "nodes": [8147478785, 8147478786, 8147478787, 8147478788, 8147478785], "tags": {"addr:city": "Tiszak\u00e9cske", "addr:housenumber": "40", "addr:postcode": "6060", "addr:street": "Kossuth utca", "amenity": "library", "building": "synagogue", "description": "Az egykori zsinag\u00f3ga \u00e9p\u00fclete", "name": "V\u00e1rosi K\u00f6nyvt\u00e1r", "opening_hours": "Mo,We-Th 13:00-18:00; Tu,Fr 08:00-18:00; Sa 08:00-13:00; PH closed", "website": "https://tiszakecskekultura.hu/konyvtar/"}}]}