{"version": 0.6, "generator": "Overpass API 0.7.59 e21c39fe", "osm3s": {"timestamp_osm_base": "2023-01-20T17:59:09Z", "copyright": "The data included in this document is from www.openstreetmap.org. The data is made available under ODbL."}, "elements": [{"type": "node", "id": 2104690539, "lat": 46.7625192, "lon": 17.3128826}, {"type": "node", "id": 2104690543, "lat": 46.7626098, "lon": 17.3126888}, {"type": "node", "id": 2104690544, "lat": 46.7626292, "lon": 17.3125488}, {"type": "node", "id": 2104690607, "lat": 46.762388, "lon": 17.3122811}, {"type": "node", "id": 2104690616, "lat": 46.7626583, "lon": 17.3125976}, {"type": "node", "id": 2104690648, "lat": 46.762491, "lon": 17.3126785}, {"type": "node", "id": 2104690650, "lat": 46.7625242, "lon": 17.3128243}, {"type": "node", "id": 2104690732, "lat": 46.7624754, "lon": 17.3128121}, {"type": "node", "id": 2104690752, "lat": 46.7626495, "lon": 17.31266}, {"type": "node", "id": 2104690759, "lat": 46.7625273, "lon": 17.3126889}, {"type": "node", "id": 2104690763, "lat": 46.7625562, "lon": 17.3124754}, {"type": "node", "id": 2104690775, "lat": 46.7623678, "lon": 17.3124149}, {"type": "node", "id": 2104690784, "lat": 46.7626643, "lon": 17.3123699}, {"type": "node", "id": 2104690803, "lat": 46.7625881, "lon": 17.3129025}, {"type": "node", "id": 2127533091, "lat": 46.767218, "lon": 17.24078}, {"type": "node", "id": 2127533093, "lat": 46.767225, "lon": 17.240791}, {"type": "node", "id": 2127533101, "lat": 46.7669881, "lon": 17.2403798}, {"type": "node", "id": 2127533110, "lat": 46.7668377, "lon": 17.2405076}, {"type": "node", "id": 2127533114, "lat": 46.7672279, "lon": 17.2408458}, {"type": "node", "id": 2127533122, "lat": 46.7672098, "lon": 17.2407728}, {"type": "node", "id": 2127533126, "lat": 46.7669373, "lon": 17.2404901}, {"type": "node", "id": 2127533134, "lat": 46.7670492, "lon": 17.2407119}, {"type": "node", "id": 2127533137, "lat": 46.7670101, "lon": 17.2409812}, {"type": "node", "id": 2127533143, "lat": 46.7672213, "lon": 17.2408622}, {"type": "node", "id": 2127533144, "lat": 46.7672301, "lon": 17.2408067}, {"type": "node", "id": 2127533166, "lat": 46.7670568, "lon": 17.2407637}, {"type": "node", "id": 2127533168, "lat": 46.7672317, "lon": 17.2408264}, {"type": "node", "id": 2127533175, "lat": 46.7668268, "lon": 17.2404196}, {"type": "node", "id": 2127533182, "lat": 46.7672322, "lon": 17.2409459}, {"type": "node", "id": 2127533198, "lat": 46.7672048, "lon": 17.2407333}, {"type": "node", "id": 2149419072, "lat": 46.8427875, "lon": 17.2217203, "tags": {"addr:city": "Rezi", "addr:housenumber": "2", "addr:postcode": "8373", "addr:street": "Iskola utca", "amenity": "library", "name": "K\u00f6zs\u00e9gi K\u00f6nyvt\u00e1r Rezi", "phone": "+36 83 331 006"}}, {"type": "node", "id": 2156348336, "lat": 46.8835727, "lon": 17.2270047, "tags": {"addr:city": "Zalasz\u00e1nt\u00f3", "addr:housenumber": "1", "addr:postcode": "8353", "addr:street": "F\u0151 utca", "amenity": "library", "name": "Gersei Peth\u0151 \u00c1ltal\u00e1nos M\u0171vel\u0151d\u00e9si K\u00f6zpont K\u00f6nyvt\u00e1ra"}}, {"type": "node", "id": 2169181422, "lat": 46.8462352, "lon": 16.8821088, "tags": {"addr:city": "Zalaegerszeg", "addr:housenumber": "1-3", "addr:postcode": "8900", "addr:street": "Sziv\u00e1rv\u00e1ny t\u00e9r", "amenity": "library", "email": "izsakamk@gmail.com", "name": "Izs\u00e1k Imre \u00c1ltal\u00e1nos M\u0171vel\u0151d\u00e9si K\u00f6zpont, V\u00e1rosi \u00e9s Iskolai K\u00f6nyvt\u00e1r", "phone": "+36 92 511 927", "website": "http://www.izsakimrealtalanosiskola.hu/"}}, {"type": "node", "id": 2171641276, "lat": 46.8364423, "lon": 16.8452325, "tags": {"addr:city": "Zalaegerszeg", "addr:housenumber": "1", "addr:postcode": "8900", "addr:street": "Zr\u00ednyi Mikl\u00f3s utca", "amenity": "library", "name": "Zala Megyei K\u00f3rh\u00e1z Eg\u00e9szs\u00e9g\u00fcgyi Szakk\u00f6nyvt\u00e1r Zalaegerszeg", "phone": "+36 92 501 590"}}, {"type": "node", "id": 2183441026, "lat": 46.8462431, "lon": 16.8449855}, {"type": "node", "id": 2183441054, "lat": 46.8462149, "lon": 16.8449061}, {"type": "node", "id": 2183441069, "lat": 46.8462453, "lon": 16.8449079}, {"type": "node", "id": 2183441087, "lat": 46.8458676, "lon": 16.8450548}, {"type": "node", "id": 2183441094, "lat": 46.8462137, "lon": 16.8449838}, {"type": "node", "id": 2183441106, "lat": 46.8462111, "lon": 16.8450755}, {"type": "node", "id": 2183441108, "lat": 46.8458749, "lon": 16.8447964}, {"type": "node", "id": 2183441124, "lat": 46.8462175, "lon": 16.844817}, {"type": "node", "id": 2450407328, "lat": 46.838563, "lon": 16.8286771}, {"type": "node", "id": 2450407337, "lat": 46.8381429, "lon": 16.8286301}, {"type": "node", "id": 2450407346, "lat": 46.8385485, "lon": 16.8289548}, {"type": "node", "id": 2450407348, "lat": 46.8381284, "lon": 16.8289079}, {"type": "node", "id": 2604660369, "lat": 46.8227024, "lon": 16.8303361, "tags": {"addr:city": "Zalaegerszeg", "addr:housenumber": "5", "addr:postcode": "8900", "addr:street": "Ap\u00e1czai Csere J\u00e1nos t\u00e9r", "amenity": "library", "name": "\u00c1MK K\u00f6nyvt\u00e1r", "official_name": "Ap\u00e1czai Csere J\u00e1nos \u00c1ltal\u00e1nos M\u0171vel\u0151d\u00e9si K\u00f6zpont K\u00f6nyvt\u00e1r", "opening_hours": "Tu 10:00-19:00; We,Th 14:00-18:00; Fr 14:00-19:00; Sa 10:00-13:00", "phone": "+36 92 549 402", "website": "http://www.apaczaizeg.hu"}}, {"type": "node", "id": 2984313636, "lat": 46.7301894, "lon": 16.8453369, "tags": {"amenity": "library"}}, {"type": "node", "id": 5022918725, "lat": 46.7626162, "lon": 17.3127123}, {"type": "node", "id": 5022918726, "lat": 46.762608, "lon": 17.3127096}, {"type": "node", "id": 5022918727, "lat": 46.7626185, "lon": 17.3126896}, {"type": "node", "id": 5022918728, "lat": 46.7626397, "lon": 17.3125521}, {"type": "node", "id": 5022918729, "lat": 46.7626441, "lon": 17.3125039}, {"type": "node", "id": 5022918730, "lat": 46.762635, "lon": 17.3125007}, {"type": "node", "id": 7626275248, "lat": 46.7540921, "lon": 16.9238369, "tags": {"addr:city": "P\u00f6l\u00f6ske", "addr:housenumber": "115", "addr:postcode": "8929", "addr:street": "Pet\u0151fi S\u00e1ndor utca", "amenity": "library", "internet_access": "wlan", "name": "M\u0171vel\u0151d\u00e9si H\u00e1z \u00e9s K\u00f6nyvt\u00e1r", "wheelchair": "limited"}}, {"type": "node", "id": 8300426985, "lat": 46.8109723, "lon": 16.7780082, "tags": {"amenity": "library", "name": "K\u00f6zs\u00e9gi K\u00f6nyvt\u00e1r"}}, {"type": "node", "id": 8311592543, "lat": 46.5077052, "lon": 16.7816292, "tags": {"amenity": "library", "name": "K\u00f6nyvt\u00e1r"}}, {"type": "node", "id": 8981488832, "lat": 46.7668328, "lon": 17.2404686}, {"type": "node", "id": 8981488847, "lat": 46.767034, "lon": 17.2406088}, {"type": "node", "id": 8981488848, "lat": 46.7670017, "lon": 17.2403881}, {"type": "node", "id": 9489145414, "lat": 46.8460123, "lon": 16.8450635, "tags": {"entrance": "main"}}, {"type": "way", "id": 200490062, "nodes": [2104690775, 2104690607, 2104690784, 5022918729, 5022918730, 2104690544, 5022918728, 2104690616, 2104690752, 5022918727, 2104690543, 5022918726, 5022918725, 2104690803, 2104690539, 2104690650, 2104690732, 2104690648, 2104690759, 2104690763, 2104690775], "tags": {"amenity": "library", "building": "residential", "opening_hours": "Tu, Th, Fr 09:00-12:30, 13:00-17:00; We 13:30-18:00"}}, {"type": "way", "id": 202815541, "nodes": [2127533110, 8981488832, 2127533175, 2127533101, 8981488848, 8981488847, 2127533134, 2127533166, 2127533198, 2127533122, 2127533091, 2127533093, 2127533144, 2127533168, 2127533114, 2127533143, 2127533182, 2127533137, 2127533126, 2127533110], "tags": {"addr:city": "Keszthely", "addr:housenumber": "3", "addr:postcode": "8360", "addr:street": "Zeppelin t\u00e9r", "amenity": "library", "building": "yes", "name": "Fej\u00e9r Gy\u00f6rgy V\u00e1rosi K\u00f6nyvt\u00e1r", "phone": "+36 83 312 446", "website": "http://www.fgyvk.hu", "wheelchair": "yes"}}, {"type": "way", "id": 208049432, "nodes": [2183441087, 2183441108, 2183441124, 2183441054, 2183441069, 2183441026, 2183441094, 2183441106, 9489145414, 2183441087], "tags": {"addr:street": "Piac t\u00e9r", "amenity": "library", "building": "yes", "name": "De\u00e1k Ferenc Megyei K\u00f6nyvt\u00e1r", "opening_hours": "Mo 10:00-17:00; Tu,We 08:30-18:00; Th,Fr 08:30-17:00; Sa 08:30-12:30", "website": "http://dfmk.dfmvk.hu/"}}, {"type": "way", "id": 237090867, "nodes": [2450407348, 2450407337, 2450407328, 2450407346, 2450407348], "tags": {"addr:city": "Zalaegerszeg", "addr:housenumber": "21", "addr:postcode": "8900", "addr:street": "Landorhegyi \u00fat", "amenity": "library", "building": "yes", "name": "J\u00f3zsef Attila V\u00e1rosi K\u00f6nyvt\u00e1r"}}]}