{"version": 0.6, "generator": "Overpass API 0.7.59 e21c39fe", "osm3s": {"timestamp_osm_base": "2023-01-21T09:47:07Z", "copyright": "The data included in this document is from www.openstreetmap.org. The data is made available under ODbL."}, "elements": [{"type": "node", "id": 1158002374, "lat": 46.4151479, "lon": 16.6885466}, {"type": "node", "id": 2268236924, "lat": 46.4150779, "lon": 16.6885432}, {"type": "node", "id": 2268236929, "lat": 46.4151445, "lon": 16.6886897}, {"type": "node", "id": 2268236930, "lat": 46.4150745, "lon": 16.6886863}, {"type": "node", "id": 5549795395, "lat": 46.4361379, "lon": 16.7368052}, {"type": "node", "id": 5549795396, "lat": 46.4361105, "lon": 16.7368152}, {"type": "node", "id": 5549795397, "lat": 46.4361652, "lon": 16.7371312}, {"type": "node", "id": 5549795398, "lat": 46.4363329, "lon": 16.7370701}, {"type": "node", "id": 5549795399, "lat": 46.4362791, "lon": 16.7367596}, {"type": "node", "id": 9094341548, "lat": 46.4753068, "lon": 16.6511711}, {"type": "node", "id": 9094341549, "lat": 46.4756222, "lon": 16.6512227}, {"type": "node", "id": 9094341550, "lat": 46.475606, "lon": 16.651432}, {"type": "node", "id": 9094341551, "lat": 46.4752905, "lon": 16.6513805}, {"type": "way", "id": 444211091, "nodes": [2268236924, 1158002374, 2268236929, 2268236930, 2268236924], "tags": {"addr:city": "Gori\u010dan", "addr:country": "HR", "addr:housenumber": "6b", "addr:postcode": "40332", "addr:street": "Komparija", "amenity": "fuel", "brand": "INA", "building": "yes", "contact:phone": "+385 4971 276", "fuel:diesel": "yes", "fuel:lpg": "yes", "fuel:octane_95": "yes", "name": "INA Gori\u010dan", "opening_hours": "24/7", "operator": "INA", "shop": "yes"}}, {"type": "way", "id": 711111293, "nodes": [5549795395, 5549795396, 5549795397, 5549795398, 5549795399, 5549795395], "tags": {"addr:city": "Letenye", "addr:housenumber": "38", "addr:postcode": "8868", "addr:street": "Bajcsy-Zsilinszky utca", "air_conditioning": "yes", "amenity": "fuel", "brand": "MOL", "brand:wikidata": "Q549181", "brand:wikipedia": "hu:MOL Magyar Olaj- \u00e9s G\u00e1zipari Nyrt.", "building": "roof", "compressed_air": "yes", "contact:facebook": "https://www.facebook.com/mol.magyarorszag/", "contact:instagram": "https://www.instagram.com/mol.magyarorszag/", "contact:website": "https://www.mol.hu", "contact:youtube": "https://www.youtube.com/user/molgrouptv", "food": "yes", "fuel:GTL_diesel": "yes", "fuel:adblue": "yes", "fuel:diesel": "yes", "fuel:lpg": "yes", "fuel:octane_100": "yes", "fuel:octane_95": "yes", "layer": "1", "name": "MOL", "operator": "MOL Nyrt.", "operator:addr": "1117 Budapest, Domb\u00f3v\u00e1ri \u00fat 28.", "payment:cash": "yes", "payment:contactless": "yes", "payment:maestro": "yes", "payment:mastercard": "yes", "payment:mastercard_contactless": "yes", "payment:mastercard_electronic": "yes", "payment:visa": "yes", "payment:visa_electron": "yes", "ref:HU:company": "01-10-041683", "ref:HU:vatin": "10625790-4-44", "rent:lpg_bottles": "yes", "source": "Maxar", "source:date": "2022-05-21", "toilets:wheelchair": "yes", "truck": "no", "wheelchair": "yes"}}, {"type": "way", "id": 983602445, "nodes": [9094341548, 9094341549, 9094341550, 9094341551, 9094341548], "tags": {"amenity": "fuel", "fixme": "pontos\u00edtsd k\u00e9rlek: helye, milyen \u00fczemanyagokat \u00e1rulnak, nyitvatart\u00e1s"}}]}