{"version": 0.6, "generator": "Overpass API 0.7.59 e21c39fe", "osm3s": {"timestamp_osm_base": "2023-01-17T15:18:24Z", "copyright": "The data included in this document is from www.openstreetmap.org. The data is made available under ODbL."}, "elements": [{"type": "node", "id": 3049074882, "lat": 47.7129341, "lon": 16.6565517, "tags": {"addr:city": "Fert\u0151r\u00e1kos", "addr:housenumber": "248", "addr:postcode": "9421", "addr:street": "F\u0151 utca", "amenity": "pub", "capacity": "20", "name": "Moln\u00e1r", "opening_hours": "Mo-Su 07:00-09:00,16:00-22:00"}}, {"type": "node", "id": 3049305273, "lat": 47.713034, "lon": 16.6564869, "tags": {"addr:city": "Fert\u0151r\u00e1kos", "addr:housenumber": "246", "addr:postcode": "9421", "addr:street": "F\u0151 utca", "amenity": "pub", "capacity": "50", "name": "Fuchs", "opening_hours": "Apr-Oct: Tu-Su 15:00-22:00"}}, {"type": "node", "id": 3049305285, "lat": 47.7201071, "lon": 16.6506688, "tags": {"addr:city": "Fert\u0151r\u00e1kos", "addr:housenumber": "138", "addr:postcode": "9421", "addr:street": "F\u0151 utca", "amenity": "pub", "capacity": "40", "name": "Park Bet\u00e9r\u0151", "opening_hours": "Mo-Fr 09:00-22:00;Sa-Su 07:00-22:00"}}, {"type": "node", "id": 3063279116, "lat": 47.7236971, "lon": 16.6210744, "tags": {"addr:city": "Sopron", "addr:postcode": "9407", "addr:street": "Pesti Barnab\u00e1s utca", "addr:suburb": "Sopronk\u0151hida", "amenity": "pub", "name": "Vas Mari", "opening_hours": "Mo-Su 07:00-20:00", "phone": "+36 30 945 7338"}}, {"type": "node", "id": 4940563176, "lat": 47.6977596, "lon": 16.5789693, "tags": {"amenity": "pub", "fixme": "verify", "name": "Colibri B\u00e1r", "source": "route4u", "toilets:wheelchair": "yes", "wheelchair": "yes"}}]}