{"version": 0.6, "generator": "Overpass API 0.7.59 e21c39fe", "osm3s": {"timestamp_osm_base": "2023-01-17T15:17:22Z", "copyright": "The data included in this document is from www.openstreetmap.org. The data is made available under ODbL."}, "elements": [{"type": "node", "id": 3485100709, "lat": 46.4321, "lon": 21.233567, "tags": {"amenity": "pub", "name": "Sarokh\u00e1z pressz\u00f3", "source": "turistautak.hu", "source:date": "2012-04-16", "url": "http://turistautak.hu/poi.php?id=137300"}}, {"type": "node", "id": 3485100729, "lat": 46.43255, "lon": 21.23705, "tags": {"amenity": "pub", "source": "turistautak.hu", "source:date": "2012-04-16", "url": "http://turistautak.hu/poi.php?id=137301"}}, {"type": "node", "id": 3485100740, "lat": 46.544856, "lon": 21.18987, "tags": {"amenity": "pub", "source": "turistautak.hu", "source:date": "2012-08-01", "url": "http://turistautak.hu/poi.php?id=103528"}}, {"type": "node", "id": 3485181861, "lat": 46.29273, "lon": 21.02556, "tags": {"amenity": "pub", "name": "Alibi s\u00f6r\u00f6z\u0151", "source": "turistautak.hu", "source:date": "2012-04-16", "url": "http://turistautak.hu/poi.php?id=137272"}}, {"type": "node", "id": 3485182421, "lat": 46.369917, "lon": 21.10015, "tags": {"amenity": "pub", "name": "Ne Tov\u00e1bb! eszpressz\u00f3", "source": "turistautak.hu", "source:date": "2012-04-16", "url": "http://turistautak.hu/poi.php?id=137293"}}, {"type": "node", "id": 3485182434, "lat": 46.4232, "lon": 21.194683, "tags": {"amenity": "pub", "name": "Viharsarok s\u00f6r\u00f6z\u0151", "source": "turistautak.hu", "source:date": "2012-04-16", "url": "http://turistautak.hu/poi.php?id=137297"}}, {"type": "node", "id": 3485182459, "lat": 46.368133, "lon": 21.101883, "tags": {"amenity": "pub", "source": "turistautak.hu", "source:date": "2012-08-01", "url": "http://turistautak.hu/poi.php?id=137292"}}, {"type": "node", "id": 4933469856, "lat": 46.2827756, "lon": 21.0226361, "tags": {"amenity": "pub", "fixme": "verify", "name": "Koccint\u00f3 Italbolt", "source": "route4u"}}, {"type": "node", "id": 5618031439, "lat": 46.2856026, "lon": 21.0257705}, {"type": "node", "id": 5618031440, "lat": 46.2856068, "lon": 21.0259112}, {"type": "node", "id": 5618031441, "lat": 46.2855316, "lon": 21.0259159}, {"type": "node", "id": 5618031442, "lat": 46.2855274, "lon": 21.0257752}, {"type": "node", "id": 5829822431, "lat": 46.5286641, "lon": 21.2502195, "tags": {"amenity": "pub"}}, {"type": "node", "id": 6976509804, "lat": 46.4976564, "lon": 21.0326457, "tags": {"addr:city": "Medgyesegyh\u00e1za", "addr:housenumber": "2", "addr:postcode": "5666", "addr:street": "Szondy utca", "amenity": "pub", "email": "unyatyinszki@freemail.hu", "name": "Soromp\u00f3 S\u00f6r\u00f6z\u0151", "opening_hours": "Mo-Su 5:30-22:00", "smoking": "outside"}}, {"type": "node", "id": 7090911984, "lat": 46.4245694, "lon": 21.0488782, "tags": {"amenity": "pub", "name": "Hangulat S\u00f6r\u00f6z\u0151"}}, {"type": "node", "id": 7630890352, "lat": 46.5235524, "lon": 21.254354, "tags": {"amenity": "pub", "fixme": "resurvey"}}, {"type": "node", "id": 7630890358, "lat": 46.5331547, "lon": 21.2410006, "tags": {"amenity": "pub", "fixme": "resurvey"}}, {"type": "node", "id": 7630898995, "lat": 46.5333779, "lon": 21.2337425, "tags": {"addr:city": "Elek", "addr:housenumber": "112", "addr:postcode": "5742", "addr:street": "K\u00e9tegyh\u00e1zi \u00fat", "amenity": "pub", "contact:facebook": "https://www.facebook.com/Kertvarosisorozo/", "contact:phone": "+36 70 369 2047", "name": "Kertv\u00e1rosi S\u00f6r\u00f6z\u0151"}}, {"type": "way", "id": 588186625, "nodes": [5618031439, 5618031440, 5618031441, 5618031442, 5618031439], "tags": {"amenity": "pub", "building": "yes"}}]}