{"version": 0.6, "generator": "Overpass API 0.7.59 e21c39fe", "osm3s": {"timestamp_osm_base": "2023-01-17T15:16:20Z", "copyright": "The data included in this document is from www.openstreetmap.org. The data is made available under ODbL."}, "elements": [{"type": "node", "id": 831839083, "lat": 48.2141826, "lon": 18.4433996, "tags": {"amenity": "pub", "name": "Mabarma"}}, {"type": "node", "id": 2094787574, "lat": 48.1834527, "lon": 18.4557199, "tags": {"amenity": "pub"}}, {"type": "node", "id": 2094813199, "lat": 48.1558928, "lon": 18.4493403, "tags": {"amenity": "pub", "name": "Pub u Terky"}}, {"type": "node", "id": 2518381494, "lat": 48.1560668, "lon": 18.2892421}, {"type": "node", "id": 2518381527, "lat": 48.1560959, "lon": 18.2891242}, {"type": "node", "id": 2518381663, "lat": 48.1562005, "lon": 18.289316}, {"type": "node", "id": 2518381737, "lat": 48.1562297, "lon": 18.2891981}, {"type": "way", "id": 244527368, "nodes": [2518381494, 2518381527, 2518381737, 2518381663, 2518381494], "tags": {"addr:city": "Ma\u0148a", "addr:conscriptionnumber": "578", "addr:country": "SK", "addr:housenumber": "578/32", "addr:postcode": "94145", "addr:street": "Domovina", "addr:streetnumber": "32", "addr:suburb": "Ve\u013ek\u00e1 Ma\u0148a", "amenity": "pub", "building": "retail", "height": "5.0", "name": "Espreso M\u00e1ria", "ref:minvskaddress": "3549105A", "source": "\u00daGKK SR Inspire", "source:addr": "minvskaddress 2022-12"}}]}