{"version": 0.6, "generator": "Overpass API 0.7.59 e21c39fe", "osm3s": {"timestamp_osm_base": "2023-01-20T17:57:01Z", "copyright": "The data included in this document is from www.openstreetmap.org. The data is made available under ODbL."}, "elements": [{"type": "node", "id": 1595931512, "lat": 47.0022438, "lon": 21.4909575, "tags": {"amenity": "library"}}, {"type": "node", "id": 1874465778, "lat": 47.0222046, "lon": 21.1753354, "tags": {"amenity": "library"}}, {"type": "node", "id": 2258429318, "lat": 47.3494982, "lon": 21.5680953}, {"type": "node", "id": 2258429321, "lat": 47.349594, "lon": 21.5678174}, {"type": "node", "id": 2258429323, "lat": 47.3496055, "lon": 21.5681758}, {"type": "node", "id": 2258429328, "lat": 47.3497013, "lon": 21.567898}, {"type": "node", "id": 2946088386, "lat": 47.2220878, "lon": 21.5353889, "tags": {"amenity": "library"}}, {"type": "node", "id": 3545087129, "lat": 47.3496457, "lon": 21.5678563, "tags": {"entrance": "main"}}, {"type": "node", "id": 4783000837, "lat": 47.2136284, "lon": 21.2324225, "tags": {"addr:city": "Biharnagybajom", "addr:housenumber": "35", "addr:postcode": "4172", "addr:street": "V\u00e1rkert", "amenity": "library", "name": "K\u00f6zs\u00e9gi K\u00f6nyvt\u00e1r"}}, {"type": "node", "id": 8308670912, "lat": 47.2282098, "lon": 21.3170152, "tags": {"amenity": "library", "name": "k\u00f6nyvt\u00e1ri szolg\u00e1ltat\u00f3 hely"}}, {"type": "node", "id": 8380906925, "lat": 47.2933105, "lon": 21.2284359}, {"type": "node", "id": 8380906926, "lat": 47.2932615, "lon": 21.2285735}, {"type": "node", "id": 8380906927, "lat": 47.293148, "lon": 21.2284857}, {"type": "node", "id": 8380906928, "lat": 47.2931969, "lon": 21.2283481}, {"type": "way", "id": 216507132, "nodes": [2258429321, 2258429318, 2258429323, 2258429328, 3545087129, 2258429321], "tags": {"amenity": "library", "building": "yes", "name": "Derecske V\u00e1rosi M\u0171vel\u0151d\u00e9si K\u00f6zpont \u00e9s K\u00f6nyvt\u00e1r", "opening_hours": "Tu-Th 09:00-18:00;Fr 09:00-17:00;Sa 08:00-12:00"}}, {"type": "way", "id": 902297053, "nodes": [8380906925, 8380906926, 8380906927, 8380906928, 8380906925], "tags": {"amenity": "library", "building": "yes"}}]}