{"version": 0.6, "generator": "Overpass API 0.7.59 e21c39fe", "osm3s": {"timestamp_osm_base": "2023-01-17T15:17:22Z", "copyright": "The data included in this document is from www.openstreetmap.org. The data is made available under ODbL."}, "elements": [{"type": "node", "id": 1928856587, "lat": 47.5938706, "lon": 19.8552314, "tags": {"amenity": "pub", "name": "Kocsma"}}, {"type": "node", "id": 2315926148, "lat": 47.5120294, "lon": 20.1340082, "tags": {"amenity": "pub", "name": "Blonder S\u00f6r\u00f6z\u0151"}}, {"type": "node", "id": 2522876634, "lat": 47.4981269, "lon": 19.9097468, "tags": {"addr:city": "J\u00e1szber\u00e9ny", "addr:postcode": "5100", "addr:street": "Aponyi t\u00e9r", "amenity": "pub", "name": "Patika S\u00f6r\u00f6z\u0151"}}, {"type": "node", "id": 2943095872, "lat": 47.6847566, "lon": 19.9273515, "tags": {"amenity": "pub", "toilets:wheelchair": "limited", "wheelchair": "no"}}, {"type": "node", "id": 2943095873, "lat": 47.6854474, "lon": 19.9271505, "tags": {"addr:city": "V\u00e1mosgy\u00f6rk", "amenity": "pub", "name": "Gy\u00f6ngyvir\u00e1g s\u00f6r\u00f6z\u0151"}}, {"type": "node", "id": 2943095881, "lat": 47.6830699, "lon": 19.9259721, "tags": {"amenity": "pub"}}, {"type": "node", "id": 3006446846, "lat": 47.4971045, "lon": 19.9087126, "tags": {"amenity": "pub", "name": "Corner"}}, {"type": "node", "id": 3006446849, "lat": 47.5036932, "lon": 19.9083639, "tags": {"amenity": "pub", "name": "T\u00f6rpe"}}, {"type": "node", "id": 3006446851, "lat": 47.4981084, "lon": 19.9109764, "tags": {"amenity": "pub", "name": "Piccolo"}}, {"type": "node", "id": 3006446852, "lat": 47.4932032, "lon": 19.8950597, "tags": {"amenity": "pub", "name": "Vasutas club s\u00f6r\u00f6z\u0151"}}, {"type": "node", "id": 3006446853, "lat": 47.4976936, "lon": 19.9006721, "tags": {"amenity": "pub", "name": "R\u00e1k\u00f3czi S\u00f6r\u00f6z\u0151"}}, {"type": "node", "id": 3045968394, "lat": 47.3757859, "lon": 20.0901453}, {"type": "node", "id": 3045968397, "lat": 47.3758225, "lon": 20.0902213}, {"type": "node", "id": 3045968400, "lat": 47.3759083, "lon": 20.0901313}, {"type": "node", "id": 3045968401, "lat": 47.3759102, "lon": 20.0900149}, {"type": "node", "id": 3045968404, "lat": 47.3759377, "lon": 20.0901923}, {"type": "node", "id": 3045968407, "lat": 47.3759761, "lon": 20.0901519}, {"type": "node", "id": 3139008482, "lat": 47.3745286, "lon": 20.0999443, "tags": {"amenity": "pub"}}, {"type": "node", "id": 3445505517, "lat": 47.757297, "lon": 19.853403, "tags": {"amenity": "pub", "name": "Bor\u00e1szat", "source": "turistautak.hu", "source:date": "2013-06-22", "url": "http://turistautak.hu/poi.php?id=28474"}}, {"type": "node", "id": 3445505556, "lat": 47.721083, "lon": 19.891233, "tags": {"amenity": "pub", "name": "Fortuna bisztr\u00f3", "source": "turistautak.hu", "source:date": "2013-07-30", "url": "http://turistautak.hu/poi.php?id=157120"}}, {"type": "node", "id": 3445506304, "lat": 47.7202, "lon": 19.891483, "tags": {"amenity": "pub", "name": "Kurta kocsma", "source": "turistautak.hu", "source:date": "2013-07-30", "url": "http://turistautak.hu/poi.php?id=157123"}}, {"type": "node", "id": 3445506370, "lat": 47.7421415, "lon": 19.9269513, "tags": {"amenity": "pub", "name": "Pressz\u00f3", "source": "turistautak.hu", "source:date": "2013-07-30", "url": "http://turistautak.hu/poi.php?id=157104"}}, {"type": "node", "id": 3445507031, "lat": 47.6863272, "lon": 20.1091126, "tags": {"amenity": "pub", "description": "Kocsma az \u00fat d\u00e9li oldal\u00e1na", "source": "turistautak.hu", "source:date": "2010-12-05", "url": "http://turistautak.hu/poi.php?id=62070"}}, {"type": "node", "id": 3445507032, "lat": 47.686583, "lon": 20.10915, "tags": {"amenity": "pub", "source": "turistautak.hu", "source:date": "2010-12-05", "url": "http://turistautak.hu/poi.php?id=62069"}}, {"type": "node", "id": 3479961357, "lat": 47.691396, "lon": 19.791944, "tags": {"amenity": "pub", "source": "turistautak.hu", "source:date": "2013-11-27", "url": "http://turistautak.hu/poi.php?id=163383"}}, {"type": "node", "id": 3485204436, "lat": 47.7354475, "lon": 20.2577144, "tags": {"amenity": "pub", "name": "Netov\u00e1bb italbolt", "source": "turistautak.hu", "source:date": "2013-03-11", "url": "http://turistautak.hu/poi.php?id=62145"}}, {"type": "node", "id": 3487687956, "lat": 47.5587292, "lon": 20.3617498, "tags": {"amenity": "pub", "name": "Kast\u00e9ly pressz\u00f3", "source": "turistautak.hu", "source:date": "2011-10-14", "url": "http://turistautak.hu/poi.php?id=126319"}}, {"type": "node", "id": 3487687969, "lat": 47.5569768, "lon": 20.3564571, "tags": {"amenity": "pub", "name": "O\u00e1zis s\u00f6r\u00f6z\u0151", "source": "turistautak.hu", "source:date": "2011-10-14", "url": "http://turistautak.hu/poi.php?id=126316"}}, {"type": "node", "id": 3487687970, "lat": 47.52755, "lon": 20.37891, "tags": {"amenity": "pub", "source": "turistautak.hu", "source:date": "2011-10-14", "url": "http://turistautak.hu/poi.php?id=126297"}}, {"type": "node", "id": 3487687977, "lat": 47.616867, "lon": 20.359283, "tags": {"amenity": "pub", "name": "Szegf\u0171 kocsma", "source": "turistautak.hu", "source:date": "2010-12-05", "url": "http://turistautak.hu/poi.php?id=77406"}}, {"type": "node", "id": 3487688312, "lat": 47.526281, "lon": 20.382159, "tags": {"amenity": "pub", "source": "turistautak.hu", "source:date": "2010-03-26", "url": "http://turistautak.hu/poi.php?id=60697"}}, {"type": "node", "id": 3487688335, "lat": 47.650497, "lon": 20.155882, "tags": {"amenity": "pub", "source": "turistautak.hu", "source:date": "2010-12-05", "url": "http://turistautak.hu/poi.php?id=61432"}}, {"type": "node", "id": 3487688336, "lat": 47.6548787, "lon": 20.3406209, "tags": {"amenity": "pub", "source": "turistautak.hu", "source:date": "2013-12-07", "toilets:wheelchair": "limited", "url": "http://turistautak.hu/poi.php?id=163698", "wheelchair": "yes"}}, {"type": "node", "id": 3487688337, "lat": 47.656506, "lon": 20.342843, "tags": {"amenity": "pub", "source": "turistautak.hu", "source:date": "2013-12-07", "toilets:wheelchair": "limited", "url": "http://turistautak.hu/poi.php?id=163699", "wheelchair": "no"}}, {"type": "node", "id": 3488469670, "lat": 47.6841932, "lon": 20.3159358, "tags": {"amenity": "pub", "name": "MANDER KOCSMA"}}, {"type": "node", "id": 3488469678, "lat": 47.6907823, "lon": 20.3100593, "tags": {"amenity": "pub", "name": "Naplemente K\u00e1v\u00e9z\u00f3-S\u00f6r\u00f6z\u0151"}}, {"type": "node", "id": 3488473094, "lat": 47.6954496, "lon": 20.3092131, "tags": {"amenity": "pub", "name": "O\u00e1zis S\u00f6r\u00f6z\u0151"}}, {"type": "node", "id": 3490658515, "lat": 47.64558, "lon": 19.9739, "tags": {"amenity": "pub", "name": "Z\u00f6ld 9", "source": "turistautak.hu", "source:date": "2014-08-26", "url": "http://turistautak.hu/poi.php?id=171333"}}, {"type": "node", "id": 3490658535, "lat": 47.520806, "lon": 20.002998, "tags": {"amenity": "pub", "source": "turistautak.hu", "source:date": "2013-12-06", "url": "http://turistautak.hu/poi.php?id=163613"}}, {"type": "node", "id": 3490658538, "lat": 47.52324, "lon": 19.992967, "tags": {"amenity": "pub", "source": "turistautak.hu", "source:date": "2013-12-06", "url": "http://turistautak.hu/poi.php?id=163611"}}, {"type": "node", "id": 3490663500, "lat": 47.508654, "lon": 20.14373, "tags": {"amenity": "pub", "name": "Ak\u00e1c s\u00f6r\u00f6z\u0151", "source": "turistautak.hu", "source:date": "2010-05-14", "url": "http://turistautak.hu/poi.php?id=93135"}}, {"type": "node", "id": 3490663504, "lat": 47.521773, "lon": 20.142023, "tags": {"amenity": "pub", "name": "Ballag\u00f3 s\u00f6r\u00f6z\u0151", "source": "turistautak.hu", "source:date": "2010-03-26", "url": "http://turistautak.hu/poi.php?id=74964"}}, {"type": "node", "id": 3490663509, "lat": 47.518437, "lon": 20.148813, "tags": {"amenity": "pub", "name": "Hal\u00e1szkert s\u00f6r\u00f6z\u0151", "source": "turistautak.hu", "source:date": "2012-11-17", "url": "http://turistautak.hu/poi.php?id=147115"}}, {"type": "node", "id": 3490663517, "lat": 47.511364, "lon": 20.131794, "tags": {"amenity": "pub", "name": "Lados s\u00f6r\u00f6z\u0151", "source": "turistautak.hu", "source:date": "2010-04-22", "url": "http://turistautak.hu/poi.php?id=91393"}}, {"type": "node", "id": 3490663520, "lat": 47.514765, "lon": 20.147521, "tags": {"amenity": "pub", "name": "Netov\u00e1bb s\u00f6r\u00f6z\u0151", "source": "turistautak.hu", "source:date": "2010-05-14", "url": "http://turistautak.hu/poi.php?id=93133"}}, {"type": "node", "id": 3490663536, "lat": 47.382723, "lon": 20.049281, "tags": {"amenity": "pub", "source": "turistautak.hu", "source:date": "2010-10-29", "url": "http://turistautak.hu/poi.php?id=103879"}}, {"type": "node", "id": 3490663545, "lat": 47.514791, "lon": 20.154433, "tags": {"amenity": "pub", "source": "turistautak.hu", "source:date": "2010-03-26", "url": "http://turistautak.hu/poi.php?id=74272"}}, {"type": "node", "id": 3490663546, "lat": 47.51512, "lon": 20.143095, "tags": {"amenity": "pub", "source": "turistautak.hu", "source:date": "2013-12-06", "url": "http://turistautak.hu/poi.php?id=163620"}}, {"type": "node", "id": 3490663547, "lat": 47.516939, "lon": 20.14671, "tags": {"amenity": "pub", "source": "turistautak.hu", "source:date": "2013-12-06", "url": "http://turistautak.hu/poi.php?id=163621"}}, {"type": "node", "id": 3656147123, "lat": 47.5958623, "lon": 20.2936615, "tags": {"amenity": "pub", "name": "Club 31", "wheelchair": "limited"}}, {"type": "node", "id": 3656147235, "lat": 47.6427065, "lon": 20.1898649, "tags": {"amenity": "pub", "name": "R\u00f3zsa pressz\u00f3", "toilets:wheelchair": "limited", "wheelchair": "no"}}, {"type": "node", "id": 3656147296, "lat": 47.6119345, "lon": 20.2849249, "tags": {"amenity": "pub"}}, {"type": "node", "id": 3656147327, "lat": 47.6429646, "lon": 20.1866334, "tags": {"amenity": "pub", "toilets:wheelchair": "limited", "wheelchair": "no"}}, {"type": "node", "id": 3656147338, "lat": 47.6560957, "lon": 20.1515975, "tags": {"amenity": "pub"}}, {"type": "node", "id": 3656147340, "lat": 47.6584079, "lon": 20.1506074, "tags": {"amenity": "pub", "name": "\u00c1szok s\u00f6r\u00f6z\u0151"}}, {"type": "node", "id": 4032670214, "lat": 47.4971054, "lon": 19.9026658, "tags": {"amenity": "pub", "name": "Kanizsa"}}, {"type": "node", "id": 4032670217, "lat": 47.5025985, "lon": 19.9144231, "tags": {"amenity": "pub", "name": "Lord"}}, {"type": "node", "id": 4032670219, "lat": 47.5047819, "lon": 19.9185579, "tags": {"amenity": "pub", "name": "Dreher"}}, {"type": "node", "id": 4351445088, "lat": 47.4534458, "lon": 19.8304074, "tags": {"amenity": "pub"}}, {"type": "node", "id": 4422533895, "lat": 47.5681637, "lon": 20.0141241, "tags": {"amenity": "pub", "name": "Full House S\u00f6r\u00f6z\u0151"}}, {"type": "node", "id": 4497392381, "lat": 47.5958806, "lon": 20.2740153}, {"type": "node", "id": 4497392382, "lat": 47.5958113, "lon": 20.2739709}, {"type": "node", "id": 4497392383, "lat": 47.5958074, "lon": 20.2739826}, {"type": "node", "id": 4497392384, "lat": 47.5957712, "lon": 20.2739639}, {"type": "node", "id": 4497392385, "lat": 47.5957499, "lon": 20.2740351}, {"type": "node", "id": 4497392386, "lat": 47.5957932, "lon": 20.2740573}, {"type": "node", "id": 4497392387, "lat": 47.5957893, "lon": 20.274076}, {"type": "node", "id": 4497392388, "lat": 47.5957436, "lon": 20.2740561}, {"type": "node", "id": 4497392589, "lat": 47.5957232, "lon": 20.2741472}, {"type": "node", "id": 4497392590, "lat": 47.5958428, "lon": 20.2741916}, {"type": "node", "id": 4526820196, "lat": 47.5998036, "lon": 20.2766284}, {"type": "node", "id": 4526820197, "lat": 47.5997107, "lon": 20.2765666}, {"type": "node", "id": 4526820198, "lat": 47.5996674, "lon": 20.2766996}, {"type": "node", "id": 4526820199, "lat": 47.5997311, "lon": 20.2767487}, {"type": "node", "id": 4526820200, "lat": 47.5997453, "lon": 20.2767008}, {"type": "node", "id": 4526820201, "lat": 47.5997752, "lon": 20.2767218}, {"type": "node", "id": 4540066336, "lat": 47.6089156, "lon": 20.2854607}, {"type": "node", "id": 4540066337, "lat": 47.6087007, "lon": 20.2855459}, {"type": "node", "id": 4540066338, "lat": 47.6087849, "lon": 20.2860328}, {"type": "node", "id": 4540066339, "lat": 47.6089628, "lon": 20.2859603}, {"type": "node", "id": 4578021216, "lat": 47.6037059, "lon": 20.2800797}, {"type": "node", "id": 4578021217, "lat": 47.6035548, "lon": 20.2799139}, {"type": "node", "id": 4578021218, "lat": 47.6034934, "lon": 20.2800376}, {"type": "node", "id": 4578021219, "lat": 47.6035847, "lon": 20.280145}, {"type": "node", "id": 4578021220, "lat": 47.6035563, "lon": 20.2801917}, {"type": "node", "id": 4578021221, "lat": 47.6036162, "lon": 20.2802665}, {"type": "node", "id": 4596675609, "lat": 47.5982728, "lon": 20.2763396}, {"type": "node", "id": 4596675610, "lat": 47.5981857, "lon": 20.2762795}, {"type": "node", "id": 4596675611, "lat": 47.5981416, "lon": 20.2763626}, {"type": "node", "id": 4596675612, "lat": 47.5981559, "lon": 20.2763803}, {"type": "node", "id": 4596675613, "lat": 47.5981141, "lon": 20.2764794}, {"type": "node", "id": 4596675614, "lat": 47.5981905, "lon": 20.2765538}, {"type": "node", "id": 4933474370, "lat": 47.7340478, "lon": 20.2715106, "tags": {"amenity": "pub", "fixme": "verify", "name": "12 sz. Italbolt", "source": "route4u", "toilets:wheelchair": "yes", "wheelchair": "limited"}}, {"type": "node", "id": 4933474702, "lat": 47.5068999, "lon": 19.9110751, "tags": {"amenity": "pub", "fixme": "verify", "name": "S\u00e1nta Kocsma", "source": "route4u", "toilets:wheelchair": "no", "wheelchair": "no"}}, {"type": "node", "id": 4933474786, "lat": 47.5110607, "lon": 19.9170031, "tags": {"addr:city": "J\u00e1szber\u00e9ny", "addr:housenumber": "52", "addr:postcode": "5100", "addr:street": "Bajnok utca", "amenity": "pub", "fixme": "verify", "name": "Kis Fah\u00e1z S\u00f6r\u00f6z\u0151", "source": "route4u", "toilets:wheelchair": "limited", "wheelchair": "yes"}}, {"type": "node", "id": 4933475449, "lat": 47.7423657, "lon": 20.2418013, "tags": {"amenity": "pub", "fixme": "verify", "name": "204. sz. italbolt", "source": "route4u", "toilets:wheelchair": "limited", "wheelchair": "no"}}, {"type": "node", "id": 4933475648, "lat": 47.5957811, "lon": 20.0518392, "tags": {"amenity": "pub", "fixme": "verify", "name": "Gerg\u0151 S\u00f6r\u00f6z\u0151", "source": "route4u", "toilets:wheelchair": "limited", "wheelchair": "no"}}, {"type": "node", "id": 4933475703, "lat": 47.6424842, "lon": 20.1018593, "tags": {"amenity": "pub", "fixme": "verify", "name": "Fekete Macska Italbolt", "source": "route4u", "toilets:wheelchair": "no", "wheelchair": "no"}}, {"type": "node", "id": 4933475760, "lat": 47.6517901, "lon": 20.1599836, "tags": {"amenity": "pub", "fixme": "verify", "name": "Szikla B\u00e1r", "source": "route4u", "toilets:wheelchair": "no", "wheelchair": "no"}}, {"type": "node", "id": 4933475916, "lat": 47.7273543, "lon": 20.0192281, "tags": {"amenity": "pub", "fixme": "verify", "name": "Vad\u00e1sz Boroz\u00f3", "source": "route4u", "toilets:wheelchair": "limited", "wheelchair": "limited"}}, {"type": "node", "id": 4933475962, "lat": 47.6928841, "lon": 19.7832739, "tags": {"amenity": "pub", "name": "Pressz\u00f3 S\u00f6r\u00f6z\u0151", "toilets:wheelchair": "no", "wheelchair": "no"}}, {"type": "node", "id": 4933475964, "lat": 47.6943303, "lon": 19.9807591, "tags": {"amenity": "pub", "fixme": "verify", "name": "Patk\u00f3 S\u00f6r\u00f6z\u0151", "source": "route4u", "toilets:wheelchair": "yes", "wheelchair": "yes"}}, {"type": "node", "id": 4939175964, "lat": 47.6560926, "lon": 20.1515391, "tags": {"amenity": "pub", "fixme": "verify", "name": "S\u00f6rkert", "source": "route4u", "toilets:wheelchair": "limited", "wheelchair": "no"}}, {"type": "node", "id": 4939177666, "lat": 47.6830071, "lon": 19.925804, "tags": {"amenity": "pub", "fixme": "verify", "name": "Kaiser S\u00f6r\u00f6z\u0151", "source": "route4u", "toilets:wheelchair": "limited", "wheelchair": "no"}}, {"type": "node", "id": 4939179193, "lat": 47.7410949, "lon": 19.9223259, "tags": {"amenity": "pub", "fixme": "verify", "name": "Pool S\u00f6r\u00f6z\u00f6", "source": "route4u", "toilets:wheelchair": "yes", "wheelchair": "yes"}}, {"type": "node", "id": 4939278113, "lat": 47.4877546, "lon": 19.8865636, "tags": {"amenity": "pub", "fixme": "verify", "name": "Red Ring", "source": "route4u"}}, {"type": "node", "id": 4940559674, "lat": 47.643669, "lon": 19.9795085, "tags": {"amenity": "pub", "fixme": "verify", "name": "Teke Klub S\u00f6r\u00f6z\u0151", "source": "route4u"}}, {"type": "node", "id": 4940563185, "lat": 47.6913543, "lon": 19.7883855, "tags": {"amenity": "pub", "fixme": "verify", "name": "Amstel S\u00f6r\u00f6z\u0151", "source": "route4u", "toilets:wheelchair": "limited", "wheelchair": "no"}}, {"type": "node", "id": 6551052870, "lat": 47.3920215, "lon": 20.3847108, "tags": {"amenity": "pub"}}, {"type": "node", "id": 8975305848, "lat": 47.7351862, "lon": 20.2572159, "tags": {"amenity": "pub"}}, {"type": "node", "id": 9751023791, "lat": 47.5047976, "lon": 19.8989426, "tags": {"amenity": "pub"}}, {"type": "node", "id": 9949946577, "lat": 47.5896532, "lon": 20.1736189}, {"type": "node", "id": 9949946578, "lat": 47.5895726, "lon": 20.1736196}, {"type": "node", "id": 9949946579, "lat": 47.5895728, "lon": 20.1736541}, {"type": "node", "id": 9949946580, "lat": 47.589542, "lon": 20.1736544}, {"type": "node", "id": 9949946581, "lat": 47.5895424, "lon": 20.1737509}, {"type": "node", "id": 9949946582, "lat": 47.5895717, "lon": 20.1737507}, {"type": "node", "id": 9949946583, "lat": 47.5895719, "lon": 20.1737847}, {"type": "node", "id": 9949946584, "lat": 47.5896539, "lon": 20.173784}, {"type": "node", "id": 9954852381, "lat": 47.5821807, "lon": 20.1723649, "tags": {"amenity": "pub", "name": "Rig\u00f3 Pressz\u00f3"}}, {"type": "node", "id": 10101458078, "lat": 47.7376877, "lon": 19.9277291, "tags": {"amenity": "pub", "name": "Sport b\u00fcf\u00e9 / kocsma"}}, {"type": "way", "id": 300525187, "nodes": [3045968397, 3045968394, 3045968401, 3045968407, 3045968404, 3045968400, 3045968397], "tags": {"addr:city": "J\u00e1szals\u00f3szentgy\u00f6rgy", "addr:housenumber": "4", "addr:postcode": "5054", "addr:street": "D\u00e9lib\u00e1b utca", "amenity": "pub", "building": "house", "name": "D\u00f3zsa B\u00fcf\u00e9"}}, {"type": "way", "id": 452927003, "nodes": [4497392381, 4497392382, 4497392383, 4497392384, 4497392385, 4497392386, 4497392387, 4497392388, 4497392589, 4497392590, 4497392381], "tags": {"addr:city": "Heves", "addr:postcode": "3360", "addr:street": "Ady Endre utca", "amenity": "pub", "building": "yes"}}, {"type": "way", "id": 456420552, "nodes": [4526820196, 4526820197, 4526820198, 4526820199, 4526820200, 4526820201, 4526820196], "tags": {"addr:city": "Heves", "addr:housenumber": "2", "addr:postcode": "3360", "addr:street": "Br\u00f3dy S\u00e1ndor utca", "amenity": "pub", "building": "yes", "name": "Jim Beam S\u00f6r\u00f6z\u0151"}}, {"type": "way", "id": 457949744, "nodes": [4540066336, 4540066337, 4540066338, 4540066339, 4540066336], "tags": {"addr:city": "Heves", "addr:postcode": "3360", "addr:street": "V\u00e9rtan\u00fa utca", "amenity": "pub", "building": "yes", "name": "Ki, mit tud? S\u00f6r\u00f6z\u0151"}}, {"type": "way", "id": 462403762, "nodes": [4578021216, 4578021217, 4578021218, 4578021219, 4578021220, 4578021221, 4578021216], "tags": {"addr:city": "Heves", "addr:postcode": "3360", "addr:street": "V\u00e9rtan\u00fa utca", "amenity": "pub", "building": "yes", "name": "Sport kocsma", "outdoor_seating": "no"}}, {"type": "way", "id": 464572353, "nodes": [4596675609, 4596675610, 4596675611, 4596675612, 4596675613, 4596675614, 4596675609], "tags": {"addr:city": "Heves", "addr:postcode": "3360", "addr:street": "Ady Endre utca", "amenity": "pub", "building": "yes", "name": "Stella Artois S\u00f6r\u00f6z\u0151"}}, {"type": "way", "id": 1085888956, "nodes": [9949946577, 9949946578, 9949946579, 9949946580, 9949946581, 9949946582, 9949946583, 9949946584, 9949946577], "tags": {"amenity": "pub", "building": "yes", "name": "Vad\u00e1sz B\u00fcf\u00e9"}}]}