{"version": 0.6, "generator": "Overpass API 0.7.59 e21c39fe", "osm3s": {"timestamp_osm_base": "2023-01-17T15:17:22Z", "copyright": "The data included in this document is from www.openstreetmap.org. The data is made available under ODbL."}, "elements": [{"type": "node", "id": 1279273313, "lat": 46.6804946, "lon": 21.0954922, "tags": {"amenity": "pub", "name": "Street Corner Zeppelin B\u00e1r", "wikimedia_commons": "File:B\u00e9k\u00e9scsaba - 2013 (20).JPG"}}, {"type": "node", "id": 1279311208, "lat": 46.6767721, "lon": 21.0967474, "tags": {"addr:city": "B\u00e9k\u00e9scsaba", "addr:housenumber": "13", "addr:postcode": "5600", "addr:street": "Bart\u00f3k B\u00e9la \u00fat", "amenity": "pub", "name": "Dublin Music Pub", "phone": "+36 70 388 3271", "toilets:wheelchair": "no", "website": "http://www.dublinpub.hu", "wheelchair": "no"}}, {"type": "node", "id": 1279311221, "lat": 46.6804191, "lon": 21.0952159, "tags": {"amenity": "pub", "name": "Club Babylon", "wheelchair": "no"}}, {"type": "node", "id": 1280500018, "lat": 46.6785058, "lon": 21.0953761, "tags": {"amenity": "pub", "name": "Boroz\u00f3", "toilets:wheelchair": "no", "wheelchair": "limited", "wikimedia_commons": "File:B\u00e9k\u00e9scsaba - 2013 (128).JPG"}}, {"type": "node", "id": 1678345972, "lat": 46.6844272, "lon": 21.0758958, "tags": {"addr:city": "B\u00e9k\u00e9scsaba", "addr:housenumber": "49", "addr:postcode": "5600", "addr:street": "Szabolcs utca", "amenity": "pub", "name": "N\u00e1das s\u00f6r\u00f6z\u0151", "operator": "Gold Rien Kft.", "operator:addr": "1139 Budapest, Gy\u00f6ngy\u00f6si utca 2. 1. em. 9. ajt\u00f3", "ref:HU:vatin": "11742898-2-41", "sport": "billiards", "toilets:wheelchair": "no", "wheelchair": "no"}}, {"type": "node", "id": 1721862470, "lat": 46.6712013, "lon": 21.0833738, "tags": {"addr:city": "B\u00e9k\u00e9scsaba", "addr:housenumber": "75", "addr:postcode": "5600", "addr:street": "Andr\u00e1ssy \u00fat", "amenity": "pub", "contact:facebook": "https://www.facebook.com/pages/Kakas%20S%C3%B6r%C3%B6z%C5%91/171124246277870/", "delivery": "no", "name": "Kakas s\u00f6r\u00f6z\u0151", "opening_hours": "Mo-Su 09:00-21:00", "payment:contactless": "yes", "toilets:wheelchair": "no", "wheelchair": "limited"}}, {"type": "node", "id": 1721869296, "lat": 46.671377, "lon": 21.0538559, "tags": {"addr:city": "B\u00e9k\u00e9scsaba", "addr:postcode": "5600", "addr:subdistrict": "Jamina", "addr:suburb": "Erzs\u00e9bethely", "alt_name": "Vinico Ny\u00fal Italbolt", "amenity": "pub", "billiards:carom": "1", "contact:phone": "+36 30 935 0948", "food": "no", "internet_access": "wlan", "internet_access:ssid": "Nyuszi_Wi-Fi", "name": "Ny\u00fal", "opening_hours": "Mo-Su 06:00-22:00", "operator": "Palusek Pro Ultra Kft.", "outdoor_seating": "yes", "sport": "table_soccer", "toilets:wheelchair": "no", "wheelchair": "no"}}, {"type": "node", "id": 1721876577, "lat": 46.6758013, "lon": 21.0565877, "tags": {"amenity": "pub", "toilets:wheelchair": "no", "wheelchair": "no"}}, {"type": "node", "id": 1721876579, "lat": 46.6768692, "lon": 21.0645492, "tags": {"amenity": "pub", "internet_access": "wlan", "internet_access:ssid": "Igyal sokat", "name": "Koccint\u00f3", "outdoor_seating": "yes", "toilets:wheelchair": "no", "wheelchair": "no"}}, {"type": "node", "id": 2072343653, "lat": 46.6762295, "lon": 21.0979297, "tags": {"addr:city": "B\u00e9k\u00e9scsaba", "addr:housenumber": "6", "addr:postcode": "5600", "addr:street": "Bart\u00f3k B\u00e9la \u00fat", "amenity": "pub", "internet_access": "wlan", "internet_access:ssid": "Golya", "name": "G\u00f3lya S\u00f6r\u00f6z\u0151", "toilets:wheelchair": "no", "wheelchair": "no"}}, {"type": "node", "id": 2072344932, "lat": 46.6764062, "lon": 21.0978278, "tags": {"addr:city": "B\u00e9k\u00e9scsaba", "addr:housenumber": "1", "addr:postcode": "5600", "addr:street": "Damjanich utca", "amenity": "pub", "name": "Bart\u00f3k Pince", "toilets:wheelchair": "no", "website": "https://foursquare.com/v/bart%C3%B3k-pince/4e9a105e6c2592b36c878785", "wheelchair": "no"}}, {"type": "node", "id": 2094743277, "lat": 46.6455154, "lon": 21.2722033, "tags": {"addr:city": "Gyula", "addr:housename": "R\u00e9gi Koml\u00f3 Sz\u00e1lloda", "addr:housenumber": "8", "addr:postcode": "5700", "addr:street": "B\u00e9ke sug\u00e1r\u00fat", "alt_name": "Angry Leprechaun Pub", "amenity": "pub", "contact:facebook": "https://facebook.com/AngryLeprechaunPub", "int_name": "M\u00e9rges Kobold Pub", "internet_access": "wifi", "internet_access:fee": "no", "name": "Public House For The Angry Leprechaun", "source": "owner", "wheelchair": "no"}}, {"type": "node", "id": 2094759588, "lat": 46.6446461, "lon": 21.2731407, "tags": {"amenity": "pub", "name": "H\u00eddf\u0151 S\u00f6r\u00f6z\u0151", "wheelchair": "limited", "wifi": "no"}}, {"type": "node", "id": 2094759589, "lat": 46.6462321, "lon": 21.2723938, "tags": {"amenity": "pub", "internet_access": "wlan", "internet_access:ssid": "S\u00f6rpatika_Guest", "name": "S\u00f6rpatika", "wheelchair": "no"}}, {"type": "node", "id": 2094798310, "lat": 46.6762271, "lon": 21.0873215, "tags": {"amenity": "pub", "name": "Contiline", "opening_hours": "24/7", "wikimedia_commons": "File:Kepi S\u00f6r\u00f6z\u0151, B\u00e9k\u00e9scsaba, Szab\u00f3 Dezs\u0151 utca - 2013 (87).jpg"}}, {"type": "node", "id": 2094798325, "lat": 46.676404, "lon": 21.0871753, "tags": {"amenity": "pub", "name": "Kepi", "toilets:wheelchair": "no", "wheelchair": "limited", "wikimedia_commons": "File:Kepi S\u00f6r\u00f6z\u0151, B\u00e9k\u00e9scsaba, Szab\u00f3 Dezs\u0151 utca - 2013 (87).jpg"}}, {"type": "node", "id": 2173880289, "lat": 46.8410145, "lon": 21.0275772}, {"type": "node", "id": 2173880290, "lat": 46.8410934, "lon": 21.0271239}, {"type": "node", "id": 2173880291, "lat": 46.8410916, "lon": 21.0275799}, {"type": "node", "id": 2173880292, "lat": 46.8410161, "lon": 21.0275404}, {"type": "node", "id": 2173880293, "lat": 46.8410237, "lon": 21.0274216}, {"type": "node", "id": 2173880294, "lat": 46.8409998, "lon": 21.027537}, {"type": "node", "id": 2173880295, "lat": 46.841029, "lon": 21.0271274}, {"type": "node", "id": 2173880296, "lat": 46.8409978, "lon": 21.0274278}, {"type": "node", "id": 2313407632, "lat": 46.6804765, "lon": 21.1067331, "tags": {"amenity": "pub", "name": "Pedro B\u00fcf\u00e9"}}, {"type": "node", "id": 2320250438, "lat": 46.9603159, "lon": 21.0842364, "tags": {"addr:city": "K\u00f6r\u00f6slad\u00e1ny", "addr:housenumber": "11", "addr:postcode": "5516", "addr:street": "Pet\u0151fi t\u00e9r", "amenity": "pub", "name": "Silver Club", "outdoor_seating": "yes", "payment:credit_cards": "no"}}, {"type": "node", "id": 2363051342, "lat": 46.7607065, "lon": 21.0425879}, {"type": "node", "id": 2363051343, "lat": 46.7607065, "lon": 21.0428394}, {"type": "node", "id": 2363051344, "lat": 46.7605882, "lon": 21.0428485}, {"type": "node", "id": 2363051345, "lat": 46.760581, "lon": 21.042597}, {"type": "node", "id": 2363108739, "lat": 46.7612366, "lon": 21.0384485}, {"type": "node", "id": 2363108741, "lat": 46.7611889, "lon": 21.0386687}, {"type": "node", "id": 2363108742, "lat": 46.7610934, "lon": 21.0386196}, {"type": "node", "id": 2363108744, "lat": 46.7611455, "lon": 21.0384058}, {"type": "node", "id": 2526247982, "lat": 46.759921, "lon": 21.039279, "tags": {"amenity": "pub", "name": "Julika Presszo", "outdoor_seating": "yes", "toilets:wheelchair": "no", "wheelchair": "no"}}, {"type": "node", "id": 2934238659, "lat": 46.6546449, "lon": 21.2683109, "tags": {"addr:city": "Gyula", "addr:housenumber": "10", "addr:postcode": "5700", "addr:street": "Kiss Ern\u0151 utca", "amenity": "pub", "name": "T\u00f3parti pressz\u00f3", "toilets:wheelchair": "no", "wheelchair": "no"}}, {"type": "node", "id": 3203224069, "lat": 46.6545573, "lon": 21.2638103, "tags": {"amenity": "pub", "name": "Kal\u00f3z kocsma", "toilets:wheelchair": "no", "wheelchair": "no"}}, {"type": "node", "id": 3203225147, "lat": 46.6555331, "lon": 21.2639175, "tags": {"amenity": "pub", "name": "Arany F\u00e1c\u00e1n S\u00f6r\u00f6z\u0151", "toilets:wheelchair": "no", "wheelchair": "no"}}, {"type": "node", "id": 3462303695, "lat": 46.954833, "lon": 21.072617, "tags": {"amenity": "pub", "name": "F\u00e1si kocsma \u00e9s \u00e9lelmiszerbolt", "source": "turistautak.hu", "source:date": "2010-07-13", "url": "http://turistautak.hu/poi.php?id=97589"}}, {"type": "node", "id": 3462304194, "lat": 46.938528, "lon": 21.264017, "tags": {"amenity": "pub", "fixme": "resurvey (source was old)", "name": "Pullman Pub", "source": "turistautak.hu", "source:date": "2008-06-11", "url": "http://turistautak.hu/poi.php?id=2705"}}, {"type": "node", "id": 3462304231, "lat": 46.957933, "lon": 21.070183, "tags": {"amenity": "pub", "name": "S\u00f6r\u00f6z\u0151", "source": "turistautak.hu", "source:date": "2010-07-13", "url": "http://turistautak.hu/poi.php?id=97586"}}, {"type": "node", "id": 3465203051, "lat": 46.884759, "lon": 21.027528, "tags": {"amenity": "pub", "name": "Gy\u00f6ngy pressz\u00f3", "source": "turistautak.hu", "source:date": "2012-08-01", "toilets:wheelchair": "no", "url": "http://turistautak.hu/poi.php?id=120342", "wheelchair": "no"}}, {"type": "node", "id": 3465203064, "lat": 46.835217, "lon": 21.032167, "tags": {"amenity": "pub", "name": "Koccint\u00f3", "source": "turistautak.hu", "source:date": "2013-07-28", "url": "http://turistautak.hu/poi.php?id=156994"}}, {"type": "node", "id": 3465203068, "lat": 46.761467, "lon": 21.127067, "tags": {"amenity": "pub", "name": "K\u00f6lcsey s\u00f6r\u00f6z\u0151", "source": "turistautak.hu", "source:date": "2012-09-05", "toilets:wheelchair": "no", "url": "http://turistautak.hu/poi.php?id=144268", "wheelchair": "no"}}, {"type": "node", "id": 3465203078, "lat": 46.871389, "lon": 21.179195, "tags": {"amenity": "pub", "name": "Mal\u00e1ta s\u00f6r\u00f6z\u0151", "source": "turistautak.hu", "source:date": "2011-08-29", "toilets:wheelchair": "no", "url": "http://turistautak.hu/poi.php?id=122373", "wheelchair": "no"}}, {"type": "node", "id": 3465206141, "lat": 46.818483, "lon": 21.031667, "tags": {"amenity": "pub", "name": "S\u00f6r\u00f6z\u0151", "source": "turistautak.hu", "source:date": "2013-07-29", "url": "http://turistautak.hu/poi.php?id=157002"}}, {"type": "node", "id": 3465206143, "lat": 46.882633, "lon": 21.031964, "tags": {"amenity": "pub", "name": "S\u00f6r\u00f6z\u0151", "source": "turistautak.hu", "source:date": "2012-08-01", "url": "http://turistautak.hu/poi.php?id=120360"}}, {"type": "node", "id": 3465206151, "lat": 46.7764569, "lon": 21.1225243, "tags": {"amenity": "pub", "name": "T\u0171l\u00e1b\u00fa kocsma", "source": "turistautak.hu", "source:date": "2012-08-04", "toilets:wheelchair": "no", "url": "http://turistautak.hu/poi.php?id=142768", "wheelchair": "no"}}, {"type": "node", "id": 3465206152, "lat": 46.826685, "lon": 21.031078, "tags": {"amenity": "pub", "name": "Vad-\u00e1sz s\u00f6rkert", "source": "turistautak.hu", "source:date": "2010-05-16", "toilets:wheelchair": "yes", "url": "http://turistautak.hu/poi.php?id=49164", "wheelchair": "yes"}}, {"type": "node", "id": 3465206172, "lat": 46.75981, "lon": 21.12984, "tags": {"amenity": "pub", "source": "turistautak.hu", "source:date": "2012-05-07", "toilets:wheelchair": "no", "url": "http://turistautak.hu/poi.php?id=138445", "wheelchair": "no"}}, {"type": "node", "id": 3465206196, "lat": 46.881911, "lon": 21.027619, "tags": {"amenity": "pub", "name": "Nagy Ablakos s\u00f6r\u00f6z\u0151", "source": "turistautak.hu", "source:date": "2012-02-14", "toilets:wheelchair": "no", "url": "http://turistautak.hu/poi.php?id=120344", "wheelchair": "no"}}, {"type": "node", "id": 3465206207, "lat": 46.778517, "lon": 21.114717, "tags": {"amenity": "pub", "name": "P\u00e1rizs F\u00e9nye italbolt", "source": "turistautak.hu", "source:date": "2012-07-17", "toilets:wheelchair": "no", "url": "http://turistautak.hu/poi.php?id=141563", "wheelchair": "no"}}, {"type": "node", "id": 3465206217, "lat": 46.873185, "lon": 21.022117, "tags": {"amenity": "pub", "name": "Sport s\u00f6r\u00f6z\u0151", "source": "turistautak.hu", "source:date": "2013-01-17", "url": "http://turistautak.hu/poi.php?id=120347"}}, {"type": "node", "id": 3465206288, "lat": 46.758962, "lon": 21.154459, "tags": {"amenity": "pub", "name": "\u00c9jszakai \u00dcgyelet", "source": "turistautak.hu", "source:date": "2012-09-02", "url": "http://turistautak.hu/poi.php?id=92467"}}, {"type": "node", "id": 3465206603, "lat": 46.780473, "lon": 21.136022, "tags": {"amenity": "pub", "source": "turistautak.hu", "source:date": "2012-08-01", "toilets:wheelchair": "no", "url": "http://turistautak.hu/poi.php?id=101406", "wheelchair": "no"}}, {"type": "node", "id": 3465206613, "lat": 46.813913, "lon": 21.211409, "tags": {"amenity": "pub", "source": "turistautak.hu", "source:date": "2012-08-01", "url": "http://turistautak.hu/poi.php?id=94770"}}, {"type": "node", "id": 3465206614, "lat": 46.814013, "lon": 21.212845, "tags": {"amenity": "pub", "source": "turistautak.hu", "source:date": "2011-03-29", "url": "http://turistautak.hu/poi.php?id=74807"}}, {"type": "node", "id": 3465206615, "lat": 46.814651, "lon": 21.214137, "tags": {"amenity": "pub", "source": "turistautak.hu", "source:date": "2012-05-21", "url": "http://turistautak.hu/poi.php?id=138945"}}, {"type": "node", "id": 3465206620, "lat": 46.816033, "lon": 21.028633, "tags": {"amenity": "pub", "source": "turistautak.hu", "source:date": "2013-07-28", "url": "http://turistautak.hu/poi.php?id=156995"}}, {"type": "node", "id": 3465206625, "lat": 46.823508, "lon": 21.033512, "tags": {"amenity": "pub", "source": "turistautak.hu", "source:date": "2012-08-28", "url": "http://turistautak.hu/poi.php?id=143917"}}, {"type": "node", "id": 3485100706, "lat": 46.7024022, "lon": 21.3205598, "tags": {"amenity": "pub", "name": "Robi Kocsm\u00e1ja", "source": "turistautak.hu", "source:date": "2012-12-27", "toilets:wheelchair": "no", "url": "http://turistautak.hu/poi.php?id=21960", "wheelchair": "limited"}}, {"type": "node", "id": 3485100764, "lat": 46.6486474, "lon": 21.275652, "tags": {"amenity": "pub", "source": "turistautak.hu", "source:date": "2012-08-01", "url": "http://turistautak.hu/poi.php?id=103537"}}, {"type": "node", "id": 3485161649, "lat": 46.6651279, "lon": 21.0798872, "tags": {"amenity": "pub", "name": "Arany \u00d6k\u00f6r", "source": "turistautak.hu", "source:date": "2012-05-07", "toilets:wheelchair": "no", "url": "http://turistautak.hu/poi.php?id=138439", "wheelchair": "no"}}, {"type": "node", "id": 3485161909, "lat": 46.65062, "lon": 21.07776, "tags": {"amenity": "pub", "source": "turistautak.hu", "source:date": "2012-08-01", "toilets:wheelchair": "no", "url": "http://turistautak.hu/poi.php?id=138432", "wheelchair": "limited"}}, {"type": "node", "id": 3485161924, "lat": 46.671595, "lon": 21.112552, "tags": {"amenity": "pub", "description": "Kocsma lebeg\u0151 st\u00e9ggel", "name": "Kik\u00f6t\u0151", "source": "turistautak.hu", "source:date": "2012-08-01", "toilets:wheelchair": "no", "url": "http://turistautak.hu/poi.php?id=88294", "wheelchair": "no"}}, {"type": "node", "id": 3485173321, "lat": 46.879684, "lon": 21.570738, "tags": {"amenity": "pub", "name": "Gomba pressz\u00f3", "source": "turistautak.hu", "source:date": "2012-08-01", "url": "http://turistautak.hu/poi.php?id=83042"}}, {"type": "node", "id": 3485173359, "lat": 46.813624, "lon": 21.383514, "tags": {"amenity": "pub", "name": "S\u00f6rkert", "source": "turistautak.hu", "source:date": "2012-08-01", "url": "http://turistautak.hu/poi.php?id=102458"}}, {"type": "node", "id": 3485173391, "lat": 46.881767, "lon": 21.5784, "tags": {"amenity": "pub", "source": "turistautak.hu", "source:date": "2012-08-01", "url": "http://turistautak.hu/poi.php?id=5093"}}, {"type": "node", "id": 3488479957, "lat": 46.60475, "lon": 21.07912, "tags": {"amenity": "pub", "name": "Dreher s\u00f6r\u00f6z\u0151", "source": "turistautak.hu", "source:date": "2012-05-07", "toilets:wheelchair": "no", "url": "http://turistautak.hu/poi.php?id=138431", "wheelchair": "no"}}, {"type": "node", "id": 3488479989, "lat": 46.600825, "lon": 21.074854, "tags": {"amenity": "pub", "source": "turistautak.hu", "source:date": "2012-08-01", "url": "http://turistautak.hu/poi.php?id=103521"}}, {"type": "node", "id": 3488480193, "lat": 46.605515, "lon": 21.0965, "tags": {"amenity": "pub", "source": "turistautak.hu", "source:date": "2012-08-01", "url": "http://turistautak.hu/poi.php?id=103519"}}, {"type": "node", "id": 3506086881, "lat": 46.6589343, "lon": 21.2797952, "tags": {"amenity": "pub"}}, {"type": "node", "id": 4132807964, "lat": 46.6689536, "lon": 21.1146924, "tags": {"amenity": "pub", "name": "Vir\u00e1g"}}, {"type": "node", "id": 4132814203, "lat": 46.6674453, "lon": 21.1257459, "tags": {"amenity": "pub", "name": "Gy\u00f6ngy pressz\u00f3", "toilets:wheelchair": "no", "wheelchair": "no"}}, {"type": "node", "id": 4132845355, "lat": 46.6653218, "lon": 21.1236997, "tags": {"amenity": "pub", "name": "V\u00e1kum S\u00f6r\u00f6z\u0151", "toilets:wheelchair": "no", "wheelchair": "no"}}, {"type": "node", "id": 4132860134, "lat": 46.6667151, "lon": 21.1188591, "tags": {"amenity": "pub", "name": "Arany Oroszl\u00e1n", "toilets:wheelchair": "no", "wheelchair": "yes"}}, {"type": "node", "id": 4132899927, "lat": 46.6668449, "lon": 21.1184303, "tags": {"amenity": "pub", "name": "T\u00f6lgyfa pressz\u00f3", "toilets:wheelchair": "no", "wheelchair": "limited"}}, {"type": "node", "id": 4132946918, "lat": 46.6716744, "lon": 21.1040762, "tags": {"amenity": "pub", "name": "Fill\u00e9res", "toilets:wheelchair": "no", "wheelchair": "no"}}, {"type": "node", "id": 4132968267, "lat": 46.680792, "lon": 21.0976548, "tags": {"amenity": "pub", "internet_access:ssid": "Kupak", "name": "Kupak S\u00f6r\u00f6z\u0151", "toilets:wheelchair": "no", "wheelchair": "yes"}}, {"type": "node", "id": 4185906995, "lat": 46.7345705, "lon": 21.241205, "tags": {"amenity": "pub", "toilets:wheelchair": "no", "wheelchair": "no"}}, {"type": "node", "id": 4212440493, "lat": 46.7286885, "lon": 21.2460311, "tags": {"amenity": "pub", "name": "B\u00e1zis s\u00f6r\u00f6z\u0151", "operator": "Antaln\u00e9 R\u00e1cz Zsuzsanna"}}, {"type": "node", "id": 4212440843, "lat": 46.7334624, "lon": 21.2353043, "tags": {"amenity": "pub", "operator": "Balogh Istv\u00e1n", "toilets:wheelchair": "no", "wheelchair": "limited"}}, {"type": "node", "id": 4212710095, "lat": 46.6564556, "lon": 21.0615232, "tags": {"addr:city": "B\u00e9k\u00e9scsaba", "addr:housenumber": "136", "addr:postcode": "5600", "addr:street": "Orosh\u00e1zi \u00fat", "amenity": "pub", "billiards:carom": "1", "billiards:pool": "1", "food": "no", "internet_access": "wlan", "internet_access:fee": "no", "name": "Boz\u00f3", "opening_hours": "Mo-Su 06:00-23:00", "power_supply": "cee_7_3", "power_supply:voltage": "230", "sport": "billiards;table_soccer", "toilets:wheelchair": "no", "tv": "yes", "wheelchair": "no"}}, {"type": "node", "id": 4212710096, "lat": 46.6662027, "lon": 21.0600621, "tags": {"addr:city": "B\u00e9k\u00e9scsaba", "addr:housenumber": "24", "addr:postcode": "5600", "addr:street": "B\u00e1thory utca", "amenity": "pub", "food": "no", "name": "B\u00e1thory s\u00f6r\u00f6z\u0151", "opening_hours": "Mo-Su 08:00-21:00", "outdoor_seating": "yes", "sport": "cue", "toilets:wheelchair": "no", "wheelchair": "limited"}}, {"type": "node", "id": 4212710098, "lat": 46.6685682, "lon": 21.0662397, "tags": {"amenity": "pub", "cuisine": "burger", "fixme": "big screen TV outside", "food": "yes", "name": "City Burger", "opening_hours": "Mo-Fr 10:00-22:00; Sa 10:00-23:00", "outdoor_seating": "yes"}}, {"type": "node", "id": 4212710099, "lat": 46.6615973, "lon": 21.0736407, "tags": {"addr:city": "B\u00e9k\u00e9scsaba", "addr:housenumber": "67", "addr:postcode": "5600", "addr:street": "Orosh\u00e1zi \u00fat", "amenity": "pub", "name": "Cseng\u0151di boroz\u00f3"}}, {"type": "node", "id": 4212710429, "lat": 46.667043, "lon": 21.0624532, "tags": {"amenity": "pub", "name": "Puszta s\u00f6r\u00f6z\u0151"}}, {"type": "node", "id": 4212710433, "lat": 46.658661, "lon": 21.0662734, "tags": {"addr:city": "B\u00e9k\u00e9scsaba", "addr:housenumber": "117", "addr:postcode": "5600", "addr:street": "Orosh\u00e1zi \u00fat", "amenity": "pub", "billiards:pool": "1", "fixme": "is this still open?", "food": "no", "internet_access": "wlan", "name": "S\u00fcni pressz\u00f3", "opening_hours": "24/7", "outdoor_seating": "yes", "sport": "billiards", "toilets:wheelchair": "no", "wheelchair": "no"}}, {"type": "node", "id": 4227370391, "lat": 46.6711058, "lon": 21.0767371, "tags": {"addr:city": "B\u00e9k\u00e9scsaba", "addr:housenumber": "33", "addr:postcode": "5600", "addr:street": "Ludvigh utca", "air_conditioning": "yes", "amenity": "pub", "background_music": "recorded", "billiards:carom": "1", "contact:facebook": "https://www.facebook.com/pages/Pertu/395189330566195", "contact:foursquare": "https://foursquare.com/v/pertu/51156e42e4b056f241ee03ef", "description": "Has wooden chairs, armchairs and a big sofa", "fixme": "verify opening_hours", "internet_access": "wlan", "internet_access:ssid": "Pertu", "name": "Pertu", "opening_hours": "Su-Th 10:00-21:00; Fr-Sa 10:00-23:30", "operator": "Pertu - Drink Bt.", "operator:addr": "5600 B\u00e9k\u00e9scsaba, Ludvigh utca 33", "outdoor_seating": "yes", "payment:cash": "only", "payment:debit_cards": "no", "power_supply": "cee_7_3", "power_supply:voltage": "230V", "ref:HU:vatin": "22570477-1-04", "sport": "carom;billiards;table_soccer", "television": "yes", "toilets": "2", "toilets:urinal": "2", "toilets:wheelchair": "no", "wheelchair": "yes"}}, {"type": "node", "id": 4227370396, "lat": 46.6697834, "lon": 21.0827395, "tags": {"amenity": "pub", "level": "-1", "name": "S\u00f6rharap\u00f3", "outdoor_seating": "yes", "toilets:wheelchair": "no", "wheelchair": "yes"}}, {"type": "node", "id": 4227370748, "lat": 46.6795985, "lon": 21.1203157, "tags": {"amenity": "pub"}}, {"type": "node", "id": 4227370878, "lat": 46.6662315, "lon": 21.0739362, "tags": {"addr:city": "B\u00e9k\u00e9scsaba", "addr:housename": "13", "addr:postcode": "5600", "addr:street": "Bessenyei utca", "amenity": "pub", "background_music": "recorded", "contact:facebook": "https://www.facebook.com/people/%C3%81d%C3%A1m-S%C3%B6r%C3%B6z%C5%91/100057208489927/", "fixme": "opening_hours", "name": "\u00c1d\u00e1m s\u00f6r\u00f6z\u0151", "opening_hours": "09:00-22:00", "outdoor_seating": "yes", "payment:cash": "only", "payment:debit_cards": "no", "power_supply": "cee_7_3", "power_supply:voltage": "230V", "sport": "carom;billiards", "toilets:wheelchair": "no", "tv": "yes", "wheelchair": "no"}}, {"type": "node", "id": 4307227848, "lat": 46.6765613, "lon": 21.0698582, "tags": {"amenity": "pub", "fixme": "position"}}, {"type": "node", "id": 4307227853, "lat": 46.6891089, "lon": 21.0922761, "tags": {"amenity": "pub", "toilets:wheelchair": "no", "wheelchair": "no"}}, {"type": "node", "id": 4307227855, "lat": 46.6909308, "lon": 21.1060774, "tags": {"amenity": "pub", "fixme": "position", "toilets:wheelchair": "no", "wheelchair": "no"}}, {"type": "node", "id": 4331266397, "lat": 46.8988011, "lon": 21.3425523}, {"type": "node", "id": 4331266400, "lat": 46.8988316, "lon": 21.3427429}, {"type": "node", "id": 4331266404, "lat": 46.8988778, "lon": 21.3426439}, {"type": "node", "id": 4331266406, "lat": 46.8988904, "lon": 21.3427227}, {"type": "node", "id": 4331266417, "lat": 46.8990201, "lon": 21.3424772}, {"type": "node", "id": 4331266418, "lat": 46.899038, "lon": 21.3425889}, {"type": "node", "id": 4449738709, "lat": 46.6805218, "lon": 21.061827, "tags": {"amenity": "pub", "name": "Aranypatk\u00f3"}}, {"type": "node", "id": 4449738721, "lat": 46.6918715, "lon": 21.0758255, "tags": {"amenity": "pub", "name": "Musk\u00e1tli pressz\u00f3", "opening_hours": "Mo-Sa 06:00-21:00", "outdoor_seating": "yes", "sport": "cue"}}, {"type": "node", "id": 4471649993, "lat": 46.6598277, "lon": 21.0831032, "tags": {"amenity": "pub", "name": "Herkules pub", "toilets:wheelchair": "no", "wheelchair": "no"}}, {"type": "node", "id": 4471649994, "lat": 46.6532885, "lon": 21.0842418, "tags": {"amenity": "pub", "name": "Urb\u00e1n s\u00f6r\u00f6z\u0151"}}, {"type": "node", "id": 4578328593, "lat": 46.678851, "lon": 21.0907932, "tags": {"amenity": "pub", "name": "C\u00e1pa s\u00f6r\u00f6z\u0151", "toilets:wheelchair": "no", "wheelchair": "no"}}, {"type": "node", "id": 4578328594, "lat": 46.6695003, "lon": 21.0908302, "tags": {"addr:city": "B\u00e9k\u00e9scsaba", "addr:housenumber": "41", "addr:postcode": "5600", "addr:street": "Tessedik S\u00e1muel utca", "amenity": "pub", "contact:facebook": "https://www.facebook.com/lotersorozo/;https://www.facebook.com/people/L%C5%91t%C3%A9r-S%C3%B6r%C3%B6z%C5%91/100054439213350/", "contact:phone": "+36 30 967 2438", "name": "L\u0151t\u00e9r S\u00f6r\u00f6z\u0151", "old_name": "Luter S\u00f6r\u00f6z\u0151", "toilets:wheelchair": "no", "wheelchair": "no"}}, {"type": "node", "id": 4623790375, "lat": 46.970187, "lon": 21.6009257}, {"type": "node", "id": 4623790376, "lat": 46.9701945, "lon": 21.6010868}, {"type": "node", "id": 4623790377, "lat": 46.9702981, "lon": 21.6010124}, {"type": "node", "id": 4623790378, "lat": 46.970301, "lon": 21.6010763}, {"type": "node", "id": 4623790379, "lat": 46.9704579, "lon": 21.6008988}, {"type": "node", "id": 4623790380, "lat": 46.9704624, "lon": 21.6009961}, {"type": "node", "id": 4739611236, "lat": 46.8736253, "lon": 21.5381405, "tags": {"amenity": "pub", "name": "Sahara Pub", "name:hu": "Sahara Pub", "operator": "T\u00e1rnok Ferenc"}}, {"type": "node", "id": 4739613822, "lat": 46.8730402, "lon": 21.5272103, "tags": {"amenity": "pub", "name": "B\u00fafelejt\u0151", "name:hu": "B\u00fafelejt\u0151"}}, {"type": "node", "id": 4741252522, "lat": 46.8953482, "lon": 21.3589935, "tags": {"addr:street": "Hunyadi \u00fat", "amenity": "pub", "name": "Sport S\u00f6r\u00f6z\u0151", "name:hu": "Sport S\u00f6r\u00f6z\u0151"}}, {"type": "node", "id": 4832895920, "lat": 46.6655698, "lon": 21.117537, "tags": {"addr:city": "B\u00e9k\u00e9scsaba", "addr:postcode": "5600", "addr:street": "F\u00f6venyes utca", "amenity": "pub", "name": "Tantusz pressz\u00f3", "toilets:wheelchair": "no", "wheelchair": "no", "wikimedia_commons": "File:B\u00e9k\u00e9scsaba, F\u00f6venyes utca. Fortepan 1292.jpg"}}, {"type": "node", "id": 4833170790, "lat": 46.6743956, "lon": 21.1147876, "tags": {"addr:city": "B\u00e9k\u00e9scsaba", "addr:housenumber": "46/1", "addr:postcode": "5600", "addr:street": "Berzsenyi utca", "amenity": "pub", "name": "K2 S\u00f6r\u00f6z\u0151"}}, {"type": "node", "id": 4833170799, "lat": 46.673594, "lon": 21.1024764, "tags": {"addr:city": "B\u00e9k\u00e9scsaba", "addr:housenumber": "47-49", "addr:postcode": "5600", "addr:street": "D\u00f3zsa Gy\u00f6rgy \u00fat", "amenity": "pub", "name": "Korona Pressz\u00f3", "toilets:wheelchair": "no", "wheelchair": "no"}}, {"type": "node", "id": 4833170800, "lat": 46.6745994, "lon": 21.0932467, "tags": {"addr:city": "B\u00e9k\u00e9scsaba", "addr:postcode": "5600", "addr:street": "Bart\u00f3k B\u00e9la \u00fat", "amenity": "pub", "name": "H\u00f6rpint\u0151 s\u00f6r\u00f6z\u0151", "toilets:wheelchair": "no", "wheelchair": "no"}}, {"type": "node", "id": 4833171133, "lat": 46.6793766, "lon": 21.0959938, "tags": {"amenity": "pub", "name": "S\u00f6r b\u00e1r", "toilets:wheelchair": "no", "wheelchair": "no", "wikimedia_commons": "File:B\u00e9k\u00e9scsaba - 2013 (16).JPG;File:B\u00e9k\u00e9scsaba - 2013 (18).JPG"}}, {"type": "node", "id": 4866037821, "lat": 46.9208219, "lon": 21.48686, "tags": {"addr:postcode": "5537", "amenity": "pub", "internet_access": "wlan", "name": "Gordiusz S\u00f6r\u00f6z\u0151", "opening_hours": "Mo-Su 06:00-22:00"}}, {"type": "node", "id": 4933470077, "lat": 46.5959156, "lon": 21.0215697, "tags": {"amenity": "pub", "fixme": "verify", "name": "Soproni S\u00f6r\u00f6z\u0151", "source": "route4u", "toilets:wheelchair": "no", "wheelchair": "no"}}, {"type": "node", "id": 4933470098, "lat": 46.6526974, "lon": 21.0666081, "tags": {"amenity": "pub", "name": "Szomjolt\u00f3 S\u00f6r\u00f6z\u0151", "toilets:wheelchair": "no", "wheelchair": "no"}}, {"type": "node", "id": 4933470100, "lat": 46.6534331, "lon": 21.2835929, "tags": {"amenity": "pub", "name": "Juliska Kocsma", "toilets:wheelchair": "no", "wheelchair": "no"}}, {"type": "node", "id": 4933470109, "lat": 46.6571266, "lon": 21.2696031, "tags": {"amenity": "pub", "name": "Mel\u00f3s Kocsma", "toilets:wheelchair": "no", "wheelchair": "limited"}}, {"type": "node", "id": 4933470112, "lat": 46.6590419, "lon": 21.258895, "tags": {"amenity": "pub", "fixme": "verify", "name": "Las Vegas", "source": "route4u", "toilets:wheelchair": "no", "wheelchair": "no"}}, {"type": "node", "id": 4933470114, "lat": 46.6591977, "lon": 21.1662946, "tags": {"amenity": "pub", "name": "Fatornyos S\u00f6r\u00f6z\u0151", "toilets:wheelchair": "no", "wheelchair": "no"}}, {"type": "node", "id": 4933470117, "lat": 46.6611281, "lon": 21.294556, "tags": {"amenity": "pub", "fixme": "verify", "name": "K\u00e1roly S\u00f6r\u00f6z\u0151", "source": "route4u", "toilets:wheelchair": "no", "wheelchair": "no"}}, {"type": "node", "id": 4933470119, "lat": 46.6616269, "lon": 21.1254873, "tags": {"amenity": "pub", "fixme": "verify", "name": "Kast\u00e9ly S\u00f6r\u00f6z\u0151", "source": "route4u", "toilets:wheelchair": "no", "wheelchair": "no"}}, {"type": "node", "id": 4933470997, "lat": 46.717853, "lon": 21.0608739, "tags": {"amenity": "pub", "fixme": "verify", "name": "Napsug\u00e1r S\u00f6r\u00f6z\u0151", "source": "route4u", "toilets:wheelchair": "no", "wheelchair": "no"}}, {"type": "node", "id": 4933471016, "lat": 46.72827, "lon": 21.3867021, "tags": {"amenity": "pub", "fixme": "verify", "name": "Mozi S\u00f6r\u00f6z\u0151", "source": "route4u", "toilets:wheelchair": "no", "wheelchair": "limited"}}, {"type": "node", "id": 4933471056, "lat": 46.6406752, "lon": 21.2703178, "tags": {"amenity": "pub", "name": "P\u00e1rizsi Bisztr\u00f3", "toilets:wheelchair": "no", "wheelchair": "no"}}, {"type": "node", "id": 4933471057, "lat": 46.6406941, "lon": 21.2698833, "tags": {"amenity": "pub", "name": "5. sz. italbolt", "toilets:wheelchair": "no", "wheelchair": "no"}}, {"type": "node", "id": 4933471059, "lat": 46.6407584, "lon": 21.2707213, "tags": {"amenity": "pub", "name": "Joker Kocsma", "toilets:wheelchair": "no", "wheelchair": "no"}}, {"type": "node", "id": 4933471094, "lat": 46.6680363, "lon": 21.1126653, "tags": {"amenity": "pub", "fixme": "verify", "name": "Voz\u00e1r Kocsma", "source": "route4u", "toilets:wheelchair": "limited", "wheelchair": "yes"}}, {"type": "node", "id": 4933471096, "lat": 46.6686918, "lon": 21.0890381, "tags": {"amenity": "pub", "fixme": "verify", "name": "Bor\u00f3ka Boroz\u00f3", "source": "route4u", "toilets:wheelchair": "no", "wheelchair": "no"}}, {"type": "node", "id": 4933471097, "lat": 46.6689572, "lon": 21.1758716, "tags": {"amenity": "pub", "fixme": "verify", "name": "Kertv\u00e1rosi S\u00f6r\u00f6z\u0151", "source": "route4u", "toilets:wheelchair": "no", "wheelchair": "no"}}, {"type": "node", "id": 4933471100, "lat": 46.6696196, "lon": 21.0965031, "tags": {"amenity": "pub", "fixme": "verify", "name": "K\u00e9k Hord\u00f3 S\u00f6r\u00f6z\u0151", "source": "route4u", "toilets:wheelchair": "no", "wheelchair": "no"}}, {"type": "node", "id": 4933471106, "lat": 46.6711577, "lon": 21.0892765, "tags": {"amenity": "pub", "name": "Pikol\u00f3 S\u00f6r\u00f6z\u0151", "toilets:wheelchair": "no", "wheelchair": "no"}}, {"type": "node", "id": 4933471120, "lat": 46.680646, "lon": 21.0804723, "tags": {"addr:city": "B\u00e9k\u00e9scsaba", "addr:housenumber": "15", "addr:postcode": "5600", "addr:street": "Kazinczy utca", "amenity": "pub", "contact:facebook": "https://www.facebook.com/kaloztanyapub", "contact:phone": "+36 30 905 0401", "name": "Kal\u00f3z tanya"}}, {"type": "node", "id": 4933471154, "lat": 46.6411521, "lon": 21.2965007, "tags": {"amenity": "pub", "name": "Tam\u00e1s B\u00e1tya Kunyh\u00f3ja", "source": "route4u;survey", "toilets:wheelchair": "no", "wheelchair": "no"}}, {"type": "node", "id": 4933471164, "lat": 46.6444572, "lon": 21.3334136, "tags": {"amenity": "pub", "fixme": "verify", "name": "\u00d3v\u00e1ri S\u00f6r\u00f6z\u0151", "source": "route4u", "toilets:wheelchair": "no", "wheelchair": "no"}}, {"type": "node", "id": 4933471171, "lat": 46.6487297, "lon": 21.2608261, "tags": {"amenity": "pub", "fixme": "verify", "name": "Dar\u00e1zs Kocsma", "source": "route4u", "toilets:wheelchair": "no", "wheelchair": "limited"}}, {"type": "node", "id": 4933471172, "lat": 46.6487521, "lon": 21.0933972, "tags": {"amenity": "pub", "fixme": "verify", "name": "Kender Center S\u00f6r\u00f6z\u0151", "source": "route4u", "toilets:wheelchair": "no", "wheelchair": "yes"}}, {"type": "node", "id": 4933471179, "lat": 46.6803523, "lon": 21.0802386, "tags": {"addr:city": "B\u00e9k\u00e9scsaba", "addr:housenumber": "18/1", "addr:postcode": "5600", "addr:street": "Kazinczy utca", "amenity": "pub", "name": "Z\u00f6ld B\u00e9ka S\u00f6r\u00f6z\u0151", "operator": "Voz\u00e1r Istv\u00e1nn\u00e9", "operator:addr": "5600 B\u00e9k\u00e9scsaba Kazinczy u. 17/2.", "toilets:wheelchair": "no", "wheelchair": "no"}}, {"type": "node", "id": 4933471187, "lat": 46.6861744, "lon": 21.1081407, "tags": {"addr:city": "B\u00e9k\u00e9scsaba", "addr:housenumber": "1", "addr:postcode": "5600", "addr:street": "Vandh\u00e1ti \u00fat", "alt_name": "Sport 2 s\u00f6r\u00f6z\u0151", "amenity": "pub", "contact:facebook": "https://www.facebook.com/sport2pub/", "contact:website": "https://sport2sorozo.hu/", "fixme": "verify", "name": "Sport II S\u00f6r\u00f6z\u0151", "source": "route4u", "start_date": "2002", "toilets:wheelchair": "no", "wheelchair": "no"}}, {"type": "node", "id": 4933471188, "lat": 46.6869863, "lon": 21.094667, "tags": {"amenity": "pub", "fixme": "verify", "name": "Nevenincs Boroz\u00f3", "source": "route4u", "toilets:wheelchair": "no", "wheelchair": "no"}}, {"type": "node", "id": 4933471193, "lat": 46.6897205, "lon": 21.0686532, "tags": {"amenity": "pub", "fixme": "verify", "name": "H\u00e1rom Amigo S\u00f6r\u00f6z\u0151", "source": "route4u"}}, {"type": "node", "id": 4933471194, "lat": 46.6900841, "lon": 21.0685735, "tags": {"amenity": "pub", "fixme": "verify", "name": "H\u00e1rom Amigo S\u00f6r\u00f6z\u0151", "source": "route4u"}}, {"type": "node", "id": 4933471203, "lat": 46.6926616, "lon": 21.0953422, "tags": {"amenity": "pub", "name": "Tr\u00e9ning Center S\u00f6r\u00f6z\u0151", "toilets:wheelchair": "no", "wheelchair": "no"}}, {"type": "node", "id": 4933471211, "lat": 46.7300688, "lon": 21.3732941, "tags": {"amenity": "pub", "fixme": "verify", "name": "R\u00f3zsa S\u00f6r\u00f6z\u0151", "source": "route4u", "toilets:wheelchair": "no", "wheelchair": "no"}}, {"type": "node", "id": 4933471212, "lat": 46.7308647, "lon": 21.3838673, "tags": {"amenity": "pub", "fixme": "verify", "name": "Forest Pub", "source": "route4u", "toilets:wheelchair": "no", "wheelchair": "no"}}, {"type": "node", "id": 4933471216, "lat": 46.7345913, "lon": 21.3737707, "tags": {"amenity": "pub", "fixme": "verify", "name": "Kedves S\u00f6r\u00f6z\u0151", "source": "route4u", "toilets:wheelchair": "no", "wheelchair": "no"}}, {"type": "node", "id": 4933471217, "lat": 46.7344446, "lon": 21.3628344, "tags": {"amenity": "pub", "fixme": "verify", "name": "G\u00f3lya S\u00f6r\u00f6z\u0151", "source": "route4u", "toilets:wheelchair": "no", "wheelchair": "no"}}, {"type": "node", "id": 4933471219, "lat": 46.7361736, "lon": 21.2375074, "tags": {"amenity": "pub", "name": "Lesz-Vigasz S\u00f6r\u00f6z\u0151"}}, {"type": "node", "id": 4933471330, "lat": 46.7033978, "lon": 21.1814237, "tags": {"amenity": "pub", "fixme": "verify", "name": "Pikol\u00f3 Italbolt", "source": "route4u", "toilets:wheelchair": "no", "wheelchair": "no"}}, {"type": "node", "id": 4933471332, "lat": 46.7053422, "lon": 21.1797434, "tags": {"amenity": "pub", "fixme": "verify", "name": "Kis Vincze Italbolt", "source": "route4u", "toilets:wheelchair": "yes", "wheelchair": "yes"}}, {"type": "node", "id": 4933471357, "lat": 46.7691786, "lon": 21.1407652, "tags": {"amenity": "pub", "fixme": "verify", "name": "T\u00e1tra S\u00f6r\u00f6z\u0151", "source": "route4u", "toilets:wheelchair": "no", "wheelchair": "no"}}, {"type": "node", "id": 4933471360, "lat": 46.7696941, "lon": 21.1275582, "tags": {"amenity": "pub", "name": "Di\u00f3fa S\u00f6r\u00f6z\u0151", "source": "route4u", "toilets:wheelchair": "no", "wheelchair": "no"}}, {"type": "node", "id": 4933471377, "lat": 46.7765589, "lon": 21.1285989, "tags": {"amenity": "pub", "fixme": "verify", "name": "Ligetsarok S\u00f6r\u00f6z\u0151", "source": "route4u", "toilets:wheelchair": "no", "wheelchair": "no"}}, {"type": "node", "id": 4933471421, "lat": 46.7373364, "lon": 21.3758849, "tags": {"amenity": "pub", "fixme": "verify", "name": "Flamingo S\u00f6r\u00f6z\u0151", "source": "route4u", "toilets:wheelchair": "no", "wheelchair": "no"}}, {"type": "node", "id": 4933471427, "lat": 46.7412, "lon": 21.3776824, "tags": {"amenity": "pub", "fixme": "verify", "name": "Kupa S\u00f6r\u00f6z\u0151", "source": "route4u", "toilets:wheelchair": "no", "wheelchair": "no"}}, {"type": "node", "id": 4933471429, "lat": 46.7427138, "lon": 21.3884983, "tags": {"amenity": "pub", "fixme": "verify", "name": "P\u00e1lma S\u00f6r\u00f6z\u0151", "source": "route4u", "toilets:wheelchair": "no", "wheelchair": "no"}}, {"type": "node", "id": 4933471459, "lat": 46.7614271, "lon": 21.1271472, "tags": {"amenity": "pub", "fixme": "verify", "name": "\u00dajv\u00e1rosi S\u00f6r\u00f6z\u0151", "source": "route4u", "toilets:wheelchair": "no", "wheelchair": "no"}}, {"type": "node", "id": 4939175568, "lat": 46.693084, "lon": 21.1288055, "tags": {"amenity": "pub", "fixme": "verify", "name": "Lila S\u00f6r\u00f6z\u0151", "source": "route4u", "toilets:wheelchair": "limited", "wheelchair": "limited"}}, {"type": "node", "id": 4939175577, "lat": 46.6435334, "lon": 21.2833533, "tags": {"amenity": "pub", "name": "V\u00e1rf\u00fcrd\u0151 Beach B\u00e1r", "toilets:wheelchair": "yes", "wheelchair": "yes"}}, {"type": "node", "id": 4939175711, "lat": 46.7014048, "lon": 21.3196623, "tags": {"amenity": "pub", "fixme": "verify", "name": "K\u00f6r\u00f6s Club Caf\u00e9", "source": "route4u", "toilets:wheelchair": "no", "wheelchair": "no"}}, {"type": "node", "id": 4939175824, "lat": 46.6654854, "lon": 21.1177616, "tags": {"amenity": "pub", "name": "Vb S\u00f6r\u00f6z\u0151", "toilets:wheelchair": "no", "wheelchair": "limited"}}, {"type": "node", "id": 4939175846, "lat": 46.7594441, "lon": 21.1302584, "tags": {"amenity": "pub", "fixme": "verify", "name": "J\u00f3bar\u00e1t S\u00f6r\u00f6z\u0151", "source": "route4u", "toilets:wheelchair": "no", "wheelchair": "no"}}, {"type": "node", "id": 4939177761, "lat": 46.687484, "lon": 21.0974143, "tags": {"amenity": "pub", "fixme": "verify", "name": "Kispipa Italbolt", "source": "route4u", "toilets:wheelchair": "no", "wheelchair": "no"}}, {"type": "node", "id": 4939178939, "lat": 46.6963784, "lon": 21.0731296, "tags": {"amenity": "pub", "fixme": "verify", "name": "Papas Pub", "source": "route4u", "toilets:wheelchair": "no", "wheelchair": "no"}}, {"type": "node", "id": 4939179523, "lat": 46.7597028, "lon": 21.1361886, "tags": {"amenity": "pub", "fixme": "verify", "name": "Denev\u00e9r S\u00f6r\u00f6z\u0151", "source": "route4u", "toilets:wheelchair": "no", "wheelchair": "no"}}, {"type": "node", "id": 4939179854, "lat": 46.6446554, "lon": 21.2724546, "tags": {"amenity": "pub", "fixme": "verify", "name": "K\u00f6r\u00f6sparti Kocsma", "source": "route4u", "toilets:wheelchair": "no", "wheelchair": "no"}}, {"type": "node", "id": 4940554831, "lat": 46.8252758, "lon": 21.0294022, "tags": {"amenity": "pub", "fixme": "verify", "name": "Lesz Vigasz S\u00f6r\u00f6z\u0151", "source": "route4u", "toilets:wheelchair": "no", "wheelchair": "no"}}, {"type": "node", "id": 4940561175, "lat": 46.664042, "lon": 21.0785084, "tags": {"amenity": "pub", "fixme": "verify", "name": "S\u00f3sperec S\u00f6r\u00f6z\u0151", "source": "route4u", "toilets:wheelchair": "no", "wheelchair": "limited"}}, {"type": "node", "id": 4940561274, "lat": 46.6477622, "lon": 21.2885996, "tags": {"amenity": "pub", "fixme": "verify", "name": "Vad\u00e1sz S\u00f6r\u00f6z\u0151", "source": "route4u", "toilets:wheelchair": "no", "wheelchair": "no"}}, {"type": "node", "id": 4940563348, "lat": 46.6412046, "lon": 21.2637334, "tags": {"amenity": "pub", "fixme": "verify", "name": "Sz\u00e9kely Kocsma", "source": "route4u", "toilets:wheelchair": "no", "wheelchair": "no"}}, {"type": "node", "id": 4940563397, "lat": 46.6707556, "lon": 21.0661379, "tags": {"amenity": "pub", "name": "Dud\u00e1s S\u00f6r\u00f6z\u0151", "toilets:wheelchair": "no", "wheelchair": "no"}}, {"type": "node", "id": 4940563952, "lat": 46.6742171, "lon": 21.0884454, "tags": {"amenity": "pub", "name": "Sport 1 S\u00f6r\u00f6z\u0151", "toilets:wheelchair": "no", "wheelchair": "no"}}, {"type": "node", "id": 6219009403, "lat": 46.8404438, "lon": 21.3512926, "tags": {"amenity": "pub", "name": "Italbolt"}}, {"type": "node", "id": 6339932486, "lat": 46.7755595, "lon": 21.450245, "tags": {"addr:city": "M\u00e9hker\u00e9k", "addr:housenumber": "30", "addr:postcode": "5726", "addr:street": "Kossuth utca", "amenity": "pub", "internet_access": "wlan", "name": "Sport s\u00f6r\u00f6z\u0151"}}, {"type": "node", "id": 6339942785, "lat": 46.7748317, "lon": 21.4513049, "tags": {"addr:city": "M\u00e9hker\u00e9k", "addr:housenumber": "37", "addr:postcode": "5726", "addr:street": "Kossuth utca", "amenity": "pub", "name": "Pedersoli Pub", "opening_hours": "Mo-Su 12:00-00:00", "phone": "+36 70 425 0897"}}, {"type": "node", "id": 6341963742, "lat": 46.6771382, "lon": 21.0890997, "tags": {"amenity": "pub"}}, {"type": "node", "id": 6341967503, "lat": 46.676431, "lon": 21.0953137, "tags": {"addr:city": "B\u00e9k\u00e9scsaba", "addr:housenumber": "21", "addr:postcode": "5600", "addr:street": "Bart\u00f3k B\u00e9la \u00fat", "alt_name": "Club Garden", "amenity": "pub", "contact:email": "garden7721@gmail.com", "contact:facebook": "https://www.facebook.com/gardenbcs", "contact:phone": "+36 70 948 8823", "name": "Garden S\u00f6r\u00f6z\u0151"}}, {"type": "node", "id": 6341967508, "lat": 46.7019161, "lon": 21.1461744, "tags": {"amenity": "pub"}}, {"type": "node", "id": 6341967515, "lat": 46.6825626, "lon": 21.1006822, "tags": {"amenity": "pub", "name": "Peron Pressz\u00f3", "wikimedia_commons": "File:B\u00e9k\u00e9scsaba - eszpressz\u00f3 vonatb\u00f3l 1.jpg ;File:B\u00e9k\u00e9scsaba - eszpressz\u00f3 vonatb\u00f3l 4.jpg"}}, {"type": "node", "id": 6357916085, "lat": 46.6429122, "lon": 21.271228, "tags": {"addr:city": "Gyula", "addr:housenumber": "17", "addr:postcode": "5700", "addr:street": "Kossuth Lajos t\u00e9r", "alt_name": "Alfa Rock Kocsma", "amenity": "pub", "background_music": "recorded", "name": "Alfa Rock sarok", "opening_hours": "Sa 18:00-03:00; Mo-Fr 14:00-00:00", "operator": "Sebesty\u00e9n G\u00e1bor", "operator:addr": "5700 Gyula, Hunyadi utca 17", "outdoor_seating": "yes", "power_supply": "cee_7_3", "ref:HU:vatin": "60922102-1-24", "sport": "table_soccer;darts"}}, {"type": "node", "id": 7978896273, "lat": 46.6891319, "lon": 21.1036069, "tags": {"amenity": "pub", "name": "Boh\u00e9m pressz\u00f3"}}, {"type": "node", "id": 8241428970, "lat": 46.7743801, "lon": 21.139698, "tags": {"amenity": "pub", "name": "B\u00e1nhida s\u00f6r\u00f6z\u0151"}}, {"type": "node", "id": 8420796563, "lat": 46.6676105, "lon": 21.1106566}, {"type": "node", "id": 8420796564, "lat": 46.6676323, "lon": 21.1107772}, {"type": "node", "id": 8420796565, "lat": 46.6675829, "lon": 21.1107441}, {"type": "node", "id": 8420796566, "lat": 46.6675974, "lon": 21.1107913}, {"type": "node", "id": 8420796567, "lat": 46.6676226, "lon": 21.1108081}, {"type": "node", "id": 8420796568, "lat": 46.6675978, "lon": 21.1108865}, {"type": "node", "id": 8420796569, "lat": 46.6675727, "lon": 21.1108697}, {"type": "node", "id": 8420796570, "lat": 46.6674665, "lon": 21.1109794}, {"type": "node", "id": 8420796571, "lat": 46.6675853, "lon": 21.1109261}, {"type": "node", "id": 8420796572, "lat": 46.6675011, "lon": 21.1108697}, {"type": "node", "id": 8420796573, "lat": 46.6676257, "lon": 21.1110859}, {"type": "node", "id": 8420796574, "lat": 46.6675508, "lon": 21.1110358}, {"type": "node", "id": 8420796575, "lat": 46.6676599, "lon": 21.1106897}, {"type": "node", "id": 8420796576, "lat": 46.6677348, "lon": 21.1107399}, {"type": "node", "id": 8931323494, "lat": 46.6426195, "lon": 21.3400224, "tags": {"addr:city": "Gyula", "addr:housenumber": "71", "addr:postcode": "5711", "addr:street": "Sz\u00e9chenyi \u00fat", "addr:suburb": "Gyulav\u00e1ri", "amenity": "pub", "contact:email": "elixbeer@elixbeer.hu", "contact:mobile": "+36 30 152 7432", "name": "Elixbeer Kast\u00e9ly S\u00f6rh\u00e1z", "opening_hours": "Mo-Fr 11:00-19:00; Sa 11:00-20:00", "website": "http://www.elixbeer.hu/"}}, {"type": "node", "id": 8931352357, "lat": 46.6593793, "lon": 21.289954}, {"type": "node", "id": 8931352358, "lat": 46.6594085, "lon": 21.289997}, {"type": "node", "id": 8931352359, "lat": 46.6595395, "lon": 21.290064}, {"type": "node", "id": 8931352360, "lat": 46.6593112, "lon": 21.2903939}, {"type": "node", "id": 8931352361, "lat": 46.6592233, "lon": 21.2902647}, {"type": "node", "id": 8931352362, "lat": 46.6594223, "lon": 21.2898919}, {"type": "node", "id": 8934013858, "lat": 46.7291817, "lon": 21.2408048, "tags": {"amenity": "pub", "name": "\u00d6csi kocsma"}}, {"type": "node", "id": 8961154430, "lat": 46.9653556, "lon": 21.0716897}, {"type": "node", "id": 8961154431, "lat": 46.9652307, "lon": 21.0716427}, {"type": "node", "id": 8961154432, "lat": 46.9651961, "lon": 21.0718395}, {"type": "node", "id": 8961154433, "lat": 46.9653815, "lon": 21.0719094}, {"type": "node", "id": 8961154434, "lat": 46.96549, "lon": 21.071611}, {"type": "node", "id": 8961154435, "lat": 46.9654077, "lon": 21.0715467}, {"type": "node", "id": 8961154437, "lat": 46.963935, "lon": 21.0786666}, {"type": "node", "id": 8961154438, "lat": 46.9638874, "lon": 21.0787851}, {"type": "node", "id": 8961154439, "lat": 46.9640471, "lon": 21.078923}, {"type": "node", "id": 8961154440, "lat": 46.9640948, "lon": 21.0788045}, {"type": "node", "id": 8961154445, "lat": 46.9417551, "lon": 21.0815498}, {"type": "node", "id": 8961154446, "lat": 46.9416224, "lon": 21.0815127}, {"type": "node", "id": 8961154447, "lat": 46.9416461, "lon": 21.0813309}, {"type": "node", "id": 8961154448, "lat": 46.9417788, "lon": 21.081368}, {"type": "node", "id": 8986839281, "lat": 46.9611626, "lon": 21.0762331}, {"type": "node", "id": 8986839282, "lat": 46.9611043, "lon": 21.0763851}, {"type": "node", "id": 8986839283, "lat": 46.9608529, "lon": 21.0761782}, {"type": "node", "id": 8986839284, "lat": 46.9609112, "lon": 21.0760262}, {"type": "node", "id": 8988579888, "lat": 46.9668031, "lon": 21.0836374}, {"type": "node", "id": 8988579889, "lat": 46.966687, "lon": 21.0836326}, {"type": "node", "id": 8988579890, "lat": 46.9666909, "lon": 21.0834316}, {"type": "node", "id": 8988579891, "lat": 46.966807, "lon": 21.0834365}, {"type": "node", "id": 9054514110, "lat": 46.5832942, "lon": 21.0283263, "tags": {"addr:city": "\u00dajk\u00edgy\u00f3s", "addr:postcode": "5661", "addr:street": "Pet\u0151fi utca", "amenity": "pub", "name": "R\u00e9ti Sas S\u00f6r\u00f6z\u0151", "smoking": "outside"}}, {"type": "node", "id": 9281659044, "lat": 46.6704986, "lon": 21.0859727, "tags": {"amenity": "pub", "name": "Maci Laci", "opening_hours:covid19": "same", "smoking": "outside"}}, {"type": "node", "id": 9333647926, "lat": 46.6833647, "lon": 21.1006416}, {"type": "node", "id": 9333647927, "lat": 46.6833683, "lon": 21.1005367}, {"type": "node", "id": 9333647928, "lat": 46.6830925, "lon": 21.1005164}, {"type": "node", "id": 9333647929, "lat": 46.6830888, "lon": 21.1006213}, {"type": "node", "id": 9395557317, "lat": 46.7759213, "lon": 21.1185873, "tags": {"amenity": "pub"}}, {"type": "node", "id": 9484798392, "lat": 46.9570834, "lon": 21.0811388}, {"type": "node", "id": 9484798454, "lat": 46.9571107, "lon": 21.0810823}, {"type": "node", "id": 9484798458, "lat": 46.9570113, "lon": 21.0810639}, {"type": "node", "id": 9484798721, "lat": 46.9570386, "lon": 21.0810074}, {"type": "node", "id": 9688303372, "lat": 46.6458135, "lon": 21.2772674, "tags": {"amenity": "pub", "name": "Red Hole Music"}}, {"type": "node", "id": 9959369349, "lat": 46.6585232, "lon": 21.2797623, "tags": {"amenity": "pub", "name": "\u00d6csi kocsma", "opening_hours": "06:00-21:00"}}, {"type": "node", "id": 10124891093, "lat": 46.6375985, "lon": 21.2733293, "tags": {"addr:city": "Gyula", "addr:housenumber": "20", "addr:postcode": "5700", "addr:street": "Kulcs utca", "amenity": "pub", "name": "Magyarv\u00e1rosi s\u00f6r\u00f6z\u0151", "sport": "bowling"}}, {"type": "node", "id": 10124891095, "lat": 46.6409953, "lon": 21.2703346, "tags": {"addr:city": "Gyula", "addr:housenumber": "2", "addr:postcode": "5700", "addr:street": "Okt\u00f3ber 6. t\u00e9r", "amenity": "pub", "contact:facebook": "https://www.facebook.com/Elements.Shisha/", "contact:phone": "+36 66 741 402", "name": "Elements b\u00e1r drink & shisha", "outdoor_seating": "yes"}}, {"type": "node", "id": 10124891096, "lat": 46.6426508, "lon": 21.2724026, "tags": {"alt_name": "Club II", "amenity": "pub", "name": "Club2 k\u00e1v\u00e9z\u00f3 \u00e9s s\u00f6r\u00f6z\u0151"}}, {"type": "node", "id": 10294242611, "lat": 46.6729896, "lon": 21.080465}, {"type": "node", "id": 10294242710, "lat": 46.6730462, "lon": 21.0805275}, {"type": "node", "id": 10294242810, "lat": 46.6729896, "lon": 21.0806367}, {"type": "node", "id": 10294242910, "lat": 46.6729329, "lon": 21.0805742}, {"type": "way", "id": 207224259, "nodes": [2173880290, 2173880291, 2173880289, 2173880292, 2173880294, 2173880296, 2173880293, 2173880295, 2173880290], "tags": {"addr:city": "Mez\u0151ber\u00e9ny", "addr:housenumber": "90", "addr:postcode": "5650", "addr:street": "K\u00f6r\u00f6starcsai \u00fat", "amenity": "pub", "building": "retail", "name": "Szik\u00f3ra B\u00fcf\u00e9 S\u00f6r\u00f6z\u0151"}}, {"type": "way", "id": 227655517, "nodes": [2363051342, 2363051343, 2363051344, 2363051345, 2363051342], "tags": {"amenity": "pub", "building": "yes", "name": "Sz\u00fcrkebar\u00e1t", "toilets:wheelchair": "no", "wheelchair": "no"}}, {"type": "way", "id": 227660354, "nodes": [2363108739, 2363108741, 2363108742, 2363108744, 2363108739], "tags": {"amenity": "pub", "building": "yes", "name": "Lugas eszpressz\u00f3", "toilets:wheelchair": "no", "wheelchair": "no"}}, {"type": "way", "id": 435187749, "nodes": [4331266417, 4331266418, 4331266404, 4331266406, 4331266400, 4331266397, 4331266417], "tags": {"amenity": "pub", "building": "yes", "name": "Soma s\u00f6r\u00f6z\u0151"}}, {"type": "way", "id": 467777016, "nodes": [4623790375, 4623790379, 4623790380, 4623790377, 4623790378, 4623790376, 4623790375], "tags": {"addr:city": "Biharugra", "addr:housenumber": "76", "addr:postcode": "5538", "addr:street": "Erzs\u00e9bet utca", "amenity": "pub", "building": "yes", "internet_access": "wlan", "name": "Makk Hetes S\u00f6r\u00f6z\u0151", "opening_hours": "Mo-Su 06:00-22:00", "operator": "Makra Tibor", "phone": "+36 66 498 026", "source": "turistautak.hu", "source:date": "2012-10-28", "url": "http://turistautak.hu/poi.php?id=5091"}}, {"type": "way", "id": 906849249, "nodes": [8420796572, 8420796571, 8420796568, 8420796569, 8420796566, 8420796567, 8420796564, 8420796565, 8420796563, 8420796575, 8420796576, 8420796573, 8420796574, 8420796570, 8420796572], "tags": {"amenity": "pub", "building": "yes", "name": "O\u00e1zis s\u00f6r\u00f6z\u0151"}}, {"type": "way", "id": 965448258, "nodes": [8931352362, 8931352359, 8931352360, 8931352361, 8931352358, 8931352357, 8931352362], "tags": {"addr:city": "Gyula", "addr:housenumber": "1", "addr:postcode": "5700", "addr:street": "Alm\u00e1ssy K\u00e1lm\u00e1nn\u00e9 t\u00e9r", "amenity": "pub", "building": "yes", "email": "info@beercorner.hu", "internet_access": "wlan", "internet_access:fee": "no", "internet_access:ssid": "Corner_Etterem", "name": "Beer Corner - Pub & Restaurant", "note": "A jelsz\u00f3 ott van az \u00e9tteremben az asztalon lev\u0151 lapon.", "opening_hours": "Mo-Th 11:30-21:00; Fr 11:30-22:00; Sa 11:30-23:00; Su 11:30-21:00", "phone": "+36 66 653 697", "website": "https://beercorner.hu"}}, {"type": "way", "id": 968612745, "nodes": [8961154433, 8961154432, 8961154431, 8961154430, 8961154435, 8961154434, 8961154433], "tags": {"amenity": "pub", "building": "yes", "name": "Ilkovics kocsma \u00e9s \u00e9lelmiszerbolt", "shop": "convenience"}}, {"type": "way", "id": 968612746, "nodes": [8961154440, 8961154439, 8961154438, 8961154437, 8961154440], "tags": {"addr:city": "K\u00f6r\u00f6slad\u00e1ny", "addr:housenumber": "23/1", "addr:postcode": "5516", "addr:street": "Kossuth Lajos \u00fat", "amenity": "pub", "building": "yes", "name": "Kemenc\u00e9s poharaz\u00f3"}}, {"type": "way", "id": 968612748, "nodes": [8961154448, 8961154445, 8961154446, 8961154447, 8961154448], "tags": {"amenity": "pub", "building": "yes", "name": "Nad\u00e1nyi kiskocsma"}}, {"type": "way", "id": 971029581, "nodes": [8986839284, 8986839281, 8986839282, 8986839283, 8986839284], "tags": {"addr:city": "K\u00f6r\u00f6slad\u00e1ny", "addr:housenumber": "30", "addr:postcode": "5516", "addr:street": "Arany J\u00e1nos utca", "amenity": "pub", "building": "yes", "name": "Aranysarok s\u00f6r\u00f6z\u0151", "toilets:wheelchair": "no", "wheelchair": "no"}}, {"type": "way", "id": 971204162, "nodes": [8988579891, 8988579888, 8988579889, 8988579890, 8988579891], "tags": {"amenity": "pub", "building": "yes", "name": "S\u00f6r\u00f6z\u0151"}}, {"type": "way", "id": 1011624164, "nodes": [9333647926, 9333647927, 9333647928, 9333647929, 9333647926], "tags": {"addr:city": "B\u00e9k\u00e9scsaba", "addr:postcode": "5600", "addr:street": "G\u0151zmalom t\u00e9r", "amenity": "pub", "historic": "ship", "name": "B38 - Gasztrokocsma \u00e9s rendezv\u00e9nyhaj\u00f3"}}, {"type": "way", "id": 1028790611, "nodes": [9484798392, 9484798458, 9484798721, 9484798454, 9484798392], "tags": {"amenity": "pub", "building": "yes", "name": "Italbolt", "shop": "beverages"}}, {"type": "way", "id": 1125737434, "nodes": [10294242611, 10294242710, 10294242810, 10294242910, 10294242611], "tags": {"addr:city": "B\u00e9k\u00e9scsaba", "addr:postcode": "5600", "addr:street": "Ih\u00e1sz utca sarok", "amenity": "pub", "building": "yes", "name": "K\u00e9tbalkezes El\u0151re pressz\u00f3", "opening_hours": "Mo-Su 08:00-21:00", "outdoor_seating": "yes", "toilets:wheelchair": "no", "wheelchair": "no", "wifi": "no"}}]}