{"version": 0.6, "generator": "Overpass API 0.7.59 e21c39fe", "osm3s": {"timestamp_osm_base": "2023-01-20T17:53:54Z", "copyright": "The data included in this document is from www.openstreetmap.org. The data is made available under ODbL."}, "elements": [{"type": "node", "id": 1273172511, "lat": 46.905652, "lon": 18.0531483, "tags": {"amenity": "library", "wheelchair": "yes"}}, {"type": "node", "id": 2342686730, "lat": 46.7403937, "lon": 18.0003905, "tags": {"amenity": "library", "name": "Zalai K\u00f6zs\u00e9gi K\u00f6nyvt\u00e1r"}}, {"type": "node", "id": 2427117777, "lat": 46.5900111, "lon": 18.2039264}, {"type": "node", "id": 2427117778, "lat": 46.5899421, "lon": 18.2037396}, {"type": "node", "id": 2427117779, "lat": 46.5897463, "lon": 18.2039054}, {"type": "node", "id": 2427117780, "lat": 46.5898169, "lon": 18.2040898}, {"type": "node", "id": 2959088432, "lat": 46.6755361, "lon": 17.978814, "tags": {"addr:city": "Zics", "addr:housenumber": "9", "addr:postcode": "8672", "addr:street": "D\u00f3zsa Gy\u00f6rgy utca", "amenity": "library", "name": "K\u00f6nyvt\u00e1ri, Inform\u00e1ci\u00f3s \u00e9s K\u00f6z\u00f6ss\u00e9gi Hely", "operator": "Tak\u00e1ts Gyula Megyei \u00e9s V\u00e1rosi K\u00f6nyvt\u00e1r"}}, {"type": "node", "id": 3446561057, "lat": 46.680511, "lon": 18.438782, "tags": {"amenity": "library", "name": "K\u00f6zs\u00e9gi k\u00f6nyvt\u00e1r", "source": "turistautak.hu", "source:date": "2012-10-14", "url": "http://turistautak.hu/poi.php?id=85684"}}, {"type": "node", "id": 3468009919, "lat": 46.70565, "lon": 18.09635, "tags": {"amenity": "library", "name": "K\u00f6nyvt\u00e1r-Kult\u00farh\u00e1z", "source": "turistautak.hu", "source:date": "2012-09-11", "url": "http://turistautak.hu/poi.php?id=144582"}}, {"type": "node", "id": 4732498471, "lat": 46.7633252, "lon": 18.0155147, "tags": {"amenity": "library", "name": "K\u00f6nyvt\u00e1ri, inform\u00e1ci\u00f3s \u00e9s k\u00f6z\u00f6ss\u00e9gi hely", "opening_hours": "We 8:00-11:00; Fr 16:00-19:00", "website": "http://www.sersekszolos.hu/konyvtar/"}}, {"type": "node", "id": 8323710128, "lat": 46.6497388, "lon": 18.0608274, "tags": {"amenity": "library"}}, {"type": "node", "id": 8354263197, "lat": 46.7505755, "lon": 18.2363733, "tags": {"amenity": "library"}}, {"type": "node", "id": 9715814236, "lat": 46.730355, "lon": 18.0314266}, {"type": "node", "id": 9715814237, "lat": 46.7303178, "lon": 18.0313135}, {"type": "node", "id": 9715814238, "lat": 46.7301772, "lon": 18.031412}, {"type": "node", "id": 9715814239, "lat": 46.7302144, "lon": 18.0315252}, {"type": "way", "id": 234461677, "nodes": [2427117777, 2427117778, 2427117779, 2427117780, 2427117777], "tags": {"amenity": "library", "building": "yes", "name": "Nagyk\u00f3nyi K\u00f6zs\u00e9gi K\u00f6nyvt\u00e1r"}}, {"type": "way", "id": 1057378586, "nodes": [9715814236, 9715814237, 9715814238, 9715814239, 9715814236], "tags": {"addr:city": "Tab", "addr:housenumber": "5", "addr:postcode": "8660", "addr:street": "Ady Endre utca", "amenity": "library", "building": "yes", "name": "V\u00e1rosi K\u00f6nyvt\u00e1r", "operator": "Tab V\u00e1ros \u00d6nkorm\u00e1nyzata", "phone": "+36 84 525 212", "website": "http://www.tabikonyvtar.hu"}}]}