{"version": 0.6, "generator": "Overpass API 0.7.59 e21c39fe", "osm3s": {"timestamp_osm_base": "2023-01-17T15:17:22Z", "copyright": "The data included in this document is from www.openstreetmap.org. The data is made available under ODbL."}, "elements": [{"type": "node", "id": 572502401, "lat": 48.4007023, "lon": 21.6689201, "tags": {"amenity": "pub", "name": "Veritas"}}, {"type": "node", "id": 872590740, "lat": 48.3691076, "lon": 21.8696359}, {"type": "node", "id": 872590741, "lat": 48.369251, "lon": 21.8696161}, {"type": "node", "id": 872590743, "lat": 48.3692584, "lon": 21.8697371}, {"type": "node", "id": 872590745, "lat": 48.3692061, "lon": 21.8697444}, {"type": "node", "id": 872590746, "lat": 48.3692101, "lon": 21.86981}, {"type": "node", "id": 872590753, "lat": 48.369119, "lon": 21.8698226}, {"type": "node", "id": 1625206490, "lat": 48.3521865, "lon": 21.7888017}, {"type": "node", "id": 1625206670, "lat": 48.352352, "lon": 21.7887938}, {"type": "node", "id": 1625206672, "lat": 48.352354, "lon": 21.7888902}, {"type": "node", "id": 1625217676, "lat": 48.4008308, "lon": 21.6693672}, {"type": "node", "id": 1625217678, "lat": 48.4008354, "lon": 21.6693669}, {"type": "node", "id": 1625217683, "lat": 48.4008358, "lon": 21.6693821}, {"type": "node", "id": 1625217684, "lat": 48.4008363, "lon": 21.6695223}, {"type": "node", "id": 1625217699, "lat": 48.4008792, "lon": 21.6693634}, {"type": "node", "id": 1625217701, "lat": 48.4008796, "lon": 21.669379}, {"type": "node", "id": 1625217715, "lat": 48.4009218, "lon": 21.6693601}, {"type": "node", "id": 1625217718, "lat": 48.4009272, "lon": 21.6695149}, {"type": "node", "id": 1625217941, "lat": 48.4013127, "lon": 21.6667226}, {"type": "node", "id": 1625217946, "lat": 48.4013207, "lon": 21.6668461}, {"type": "node", "id": 1625217967, "lat": 48.4013436, "lon": 21.6666131}, {"type": "node", "id": 1625217975, "lat": 48.4013498, "lon": 21.6667175}, {"type": "node", "id": 1625218091, "lat": 48.4015038, "lon": 21.6665897}, {"type": "node", "id": 1625218109, "lat": 48.4015192, "lon": 21.666821}, {"type": "node", "id": 2386906619, "lat": 48.4055359, "lon": 21.6544874, "tags": {"amenity": "pub", "name": "V\u00edg matr\u00f3z", "toilets:wheelchair": "no", "wheelchair": "no"}}, {"type": "node", "id": 2777427977, "lat": 48.22957, "lon": 22.0737612, "tags": {"amenity": "pub", "name": "V\u00e1rkert S\u00f6r\u00f6z\u0151", "source": "turistautak.hu", "url": "http://turistautak.hu/poi.php?id=176119", "wheelchair": "no"}}, {"type": "node", "id": 2777427979, "lat": 48.2267985, "lon": 22.0754928, "tags": {"amenity": "pub"}}, {"type": "node", "id": 2777516132, "lat": 48.2251504, "lon": 22.0847743, "tags": {"amenity": "pub"}}, {"type": "node", "id": 2777518978, "lat": 48.226024, "lon": 22.078969, "tags": {"amenity": "pub", "name": "Kukori Kocsma"}}, {"type": "node", "id": 3050711337, "lat": 48.2298346, "lon": 22.0959383, "tags": {"amenity": "pub", "name": "H\u00e1rmas \u00fati Pressz\u00f3", "toilets:wheelchair": "yes", "wheelchair": "yes"}}, {"type": "node", "id": 3456413834, "lat": 48.3465829, "lon": 21.6900344, "tags": {"addr:city": "Als\u00f3berecki", "addr:postcode": "3985", "addr:street": "Kossuth Lajos utca", "amenity": "pub", "description": "Nagyon kult\u00far\u00e1lt kocsma, \u00faj berendez\u00e9ssel. Mi s\u00fctem\u00e9nyt is ett\u00fcnk benne.", "name": "Bodrogparty s\u00f6r\u00f6z\u0151", "source": "turistautak.hu", "source:date": "2010-11-03", "url": "http://turistautak.hu/poi.php?id=6889"}}, {"type": "node", "id": 3465100686, "lat": 48.20575, "lon": 22.25965, "tags": {"amenity": "pub", "name": "J\u00f3bar\u00e1t eszpressz\u00f3", "source": "turistautak.hu", "source:date": "2013-05-01", "url": "http://turistautak.hu/poi.php?id=152923"}}, {"type": "node", "id": 3465102222, "lat": 48.20257, "lon": 22.26249, "tags": {"amenity": "pub", "source": "turistautak.hu", "source:date": "2013-05-01", "url": "http://turistautak.hu/poi.php?id=152922"}}, {"type": "node", "id": 3471770314, "lat": 48.24612, "lon": 22.22562, "tags": {"amenity": "pub", "name": "Holdf\u00e9ny pressz\u00f3", "source": "turistautak.hu", "source:date": "2013-05-01", "url": "http://turistautak.hu/poi.php?id=152925"}}, {"type": "node", "id": 3471770317, "lat": 48.21735, "lon": 22.075117, "tags": {"amenity": "pub", "name": "Kan-Sas s\u00f6r\u00f6z\u0151", "source": "turistautak.hu", "source:date": "2011-05-03", "url": "http://turistautak.hu/poi.php?id=103442"}}, {"type": "node", "id": 3471770332, "lat": 48.20833, "lon": 22.0781433, "tags": {"amenity": "pub", "name": "Pressz\u00f3", "source": "turistautak.hu", "source:date": "2011-05-03", "url": "http://turistautak.hu/poi.php?id=47160"}}, {"type": "node", "id": 3471770345, "lat": 48.213433, "lon": 22.084517, "tags": {"amenity": "pub", "name": "Soproni s\u00f6r\u00f6z\u0151", "source": "turistautak.hu", "source:date": "2011-05-03", "url": "http://turistautak.hu/poi.php?id=103412"}}, {"type": "node", "id": 3471770356, "lat": 48.270633, "lon": 22.10005, "tags": {"amenity": "pub", "name": "Tisza pressz\u00f3", "source": "turistautak.hu", "source:date": "2011-05-03", "url": "http://turistautak.hu/poi.php?id=103456"}}, {"type": "node", "id": 3471770519, "lat": 48.24725, "lon": 21.96, "tags": {"amenity": "pub", "source": "turistautak.hu", "source:date": "2015-01-24", "url": "http://turistautak.hu/poi.php?id=176075"}}, {"type": "node", "id": 3471770523, "lat": 48.26441, "lon": 22.16759, "tags": {"amenity": "pub", "source": "turistautak.hu", "source:date": "2013-05-02", "url": "http://turistautak.hu/poi.php?id=153042"}}, {"type": "node", "id": 3471770536, "lat": 48.2697, "lon": 22.100283, "tags": {"amenity": "pub", "source": "turistautak.hu", "source:date": "2011-05-03", "toilets:wheelchair": "yes", "url": "http://turistautak.hu/poi.php?id=103455", "wheelchair": "no"}}, {"type": "node", "id": 3471770537, "lat": 48.270857, "lon": 22.180438, "tags": {"amenity": "pub", "source": "turistautak.hu", "source:date": "2013-05-02", "url": "http://turistautak.hu/poi.php?id=153012"}}, {"type": "node", "id": 3488473646, "lat": 48.263217, "lon": 21.891967, "tags": {"amenity": "pub", "name": "Kis Garas", "source": "turistautak.hu", "source:date": "2010-11-03", "url": "http://turistautak.hu/poi.php?id=103408"}}, {"type": "node", "id": 3488473651, "lat": 48.264067, "lon": 21.891317, "tags": {"amenity": "pub", "name": "Pressz\u00f3", "source": "turistautak.hu", "source:date": "2011-05-03", "url": "http://turistautak.hu/poi.php?id=103410"}}, {"type": "node", "id": 3488473670, "lat": 48.313438, "lon": 21.795495, "tags": {"amenity": "pub", "name": "T\u00f3 s\u00f6r\u00f6z\u0151", "source": "turistautak.hu", "source:date": "2013-05-21", "url": "http://turistautak.hu/poi.php?id=153758"}}, {"type": "node", "id": 3488477317, "lat": 48.308923, "lon": 21.792003, "tags": {"amenity": "pub", "name": "\u00c1rnyas s\u00f6r\u00f6z\u0151", "source": "turistautak.hu", "source:date": "2010-11-03", "url": "http://turistautak.hu/poi.php?id=6892"}}, {"type": "node", "id": 3489654415, "lat": 48.192087, "lon": 21.802647, "tags": {"amenity": "pub", "name": "Hangulat pressz\u00f3", "source": "turistautak.hu", "source:date": "2010-05-10", "url": "http://turistautak.hu/poi.php?id=48848"}}, {"type": "node", "id": 3490721349, "lat": 48.34686, "lon": 22.214742, "tags": {"amenity": "pub", "name": "Napf\u00e9ny s\u00f6r\u00f6z\u0151", "source": "turistautak.hu", "source:date": "2013-05-02", "url": "http://turistautak.hu/poi.php?id=153022"}}, {"type": "node", "id": 3608387366, "lat": 48.3924594, "lon": 22.0935415, "tags": {"amenity": "pub"}}, {"type": "node", "id": 3608397329, "lat": 48.38964, "lon": 21.918367, "tags": {"amenity": "pub", "name": "Pri z\u00e1vor\u00e1ch"}}, {"type": "node", "id": 3639278111, "lat": 48.3136558, "lon": 21.8046256}, {"type": "node", "id": 3639278112, "lat": 48.3136602, "lon": 21.8048425}, {"type": "node", "id": 3639278113, "lat": 48.3137603, "lon": 21.8046209}, {"type": "node", "id": 3639278114, "lat": 48.3137647, "lon": 21.8048378}, {"type": "node", "id": 3689671429, "lat": 48.1906047, "lon": 21.7352802, "tags": {"amenity": "pub"}}, {"type": "node", "id": 3843292864, "lat": 48.3469768, "lon": 22.2200264, "tags": {"amenity": "pub", "name": "Cs\u00f3k\u00e1si Kocsma"}}, {"type": "node", "id": 4089303427, "lat": 48.360739, "lon": 21.6930679, "tags": {"amenity": "pub", "name": "Power Club"}}, {"type": "node", "id": 4420110509, "lat": 48.3344646, "lon": 21.8364113}, {"type": "node", "id": 4420110510, "lat": 48.3343824, "lon": 21.8364178}, {"type": "node", "id": 4420110511, "lat": 48.3344006, "lon": 21.8369418}, {"type": "node", "id": 4420110512, "lat": 48.3344828, "lon": 21.8369354}, {"type": "node", "id": 4543075583, "lat": 48.2448266, "lon": 21.8995965}, {"type": "node", "id": 4543075584, "lat": 48.244799, "lon": 21.8998321}, {"type": "node", "id": 4543075585, "lat": 48.2446916, "lon": 21.8998038}, {"type": "node", "id": 4543075586, "lat": 48.2447192, "lon": 21.8995682}, {"type": "node", "id": 4623876973, "lat": 48.3400243, "lon": 21.6866336}, {"type": "node", "id": 4623876974, "lat": 48.3400279, "lon": 21.6864914}, {"type": "node", "id": 4623876975, "lat": 48.3400886, "lon": 21.6866372}, {"type": "node", "id": 4623876976, "lat": 48.3400922, "lon": 21.6864951}, {"type": "node", "id": 4665527290, "lat": 48.319264, "lon": 22.2698232, "tags": {"amenity": "pub"}}, {"type": "node", "id": 4665538994, "lat": 48.3149042, "lon": 22.2719445, "tags": {"amenity": "pub"}}, {"type": "node", "id": 4741951524, "lat": 48.3009228, "lon": 22.1197637, "tags": {"amenity": "pub"}}, {"type": "node", "id": 4741951525, "lat": 48.305119, "lon": 22.1116292, "tags": {"amenity": "pub", "toilets:wheelchair": "limited", "wheelchair": "no"}}, {"type": "node", "id": 4833175785, "lat": 48.2825549, "lon": 22.2784287, "tags": {"addr:city": "M\u00e1tyus", "addr:postcode": "4835", "amenity": "pub", "name": "Helyi Kocsma", "outdoor_seating": "yes", "smoking": "outside"}}, {"type": "node", "id": 4933478115, "lat": 48.2226095, "lon": 22.0844206, "tags": {"amenity": "pub", "fixme": "verify", "name": "Gerend\u00e1s Kocsma", "source": "route4u"}}, {"type": "node", "id": 4933478344, "lat": 48.2671611, "lon": 22.1934058, "tags": {"amenity": "pub", "fixme": "verify", "name": "Makkos S\u00f6r\u00f6z\u0151", "source": "route4u", "toilets:wheelchair": "yes", "wheelchair": "limited"}}, {"type": "node", "id": 4933478366, "lat": 48.3583925, "lon": 22.1456774, "tags": {"amenity": "pub", "fixme": "verify", "name": "Titi Pressz\u00f3", "source": "route4u"}}, {"type": "node", "id": 4933478370, "lat": 48.3632136, "lon": 22.1558756, "tags": {"amenity": "pub", "name": "V\u00e9n Di\u00f3fa Pressz\u00f3", "toilets:wheelchair": "yes", "wheelchair": "limited"}}, {"type": "node", "id": 4933478374, "lat": 48.3665784, "lon": 22.0668405, "tags": {"amenity": "pub", "fixme": "verify", "name": "S\u00f6r\u00f6z\u0151", "source": "route4u", "toilets:wheelchair": "no", "wheelchair": "limited"}}, {"type": "node", "id": 4933478528, "lat": 48.40574, "lon": 22.1768986, "tags": {"amenity": "pub", "name": "Pepe S\u00f6r\u00f6z\u0151", "toilets:wheelchair": "limited", "wheelchair": "limited"}}, {"type": "node", "id": 4939179289, "lat": 48.4019082, "lon": 22.1802752, "tags": {"amenity": "pub", "name": "Vir\u00e1goskert S\u00f6r\u00f6z\u0151", "toilets:wheelchair": "yes", "wheelchair": "yes"}}, {"type": "node", "id": 4939278084, "lat": 48.4021908, "lon": 22.1807614, "tags": {"amenity": "pub", "name": "Crazy Bowling Club", "toilets:wheelchair": "yes", "wheelchair": "yes"}}, {"type": "node", "id": 4939278617, "lat": 48.3982138, "lon": 21.6565669, "tags": {"amenity": "pub", "name": "Italbolt", "toilets:wheelchair": "no", "wheelchair": "no"}}, {"type": "node", "id": 4940556468, "lat": 48.321698, "lon": 21.6537247, "tags": {"amenity": "pub"}}, {"type": "node", "id": 5323858001, "lat": 48.398217, "lon": 21.7420869, "tags": {"amenity": "pub"}}, {"type": "node", "id": 7924222664, "lat": 48.2108057, "lon": 22.0867391, "tags": {"amenity": "pub"}}, {"type": "node", "id": 7924222665, "lat": 48.2192604, "lon": 22.0824582, "tags": {"amenity": "pub", "name": "Bakancs"}}, {"type": "node", "id": 7924222706, "lat": 48.2285206, "lon": 22.0853523, "tags": {"amenity": "pub", "name": "Makk-\u00c1sz"}}, {"type": "node", "id": 7924222709, "lat": 48.2190946, "lon": 22.0741384, "tags": {"amenity": "pub", "name": "Lugas PRessz\u00f3"}}, {"type": "node", "id": 8977040960, "lat": 48.3521885, "lon": 21.788898}, {"type": "node", "id": 9047386540, "lat": 48.3963889, "lon": 21.9519845, "tags": {"amenity": "pub", "contact:facebook": "https://www.facebook.com/pohostinstvoErdeiova/about/?ref=page_internal", "name": "Pohostinstvo Erdeiov\u00e1"}}, {"type": "node", "id": 9271906744, "lat": 48.3952126, "lon": 21.7084962, "tags": {"amenity": "pub"}}, {"type": "node", "id": 9271911123, "lat": 48.3920513, "lon": 21.7071752, "tags": {"amenity": "pub"}}, {"type": "node", "id": 10075213743, "lat": 48.3786811, "lon": 22.2332978, "tags": {"amenity": "pub", "name": "Gazda"}}, {"type": "way", "id": 73666450, "nodes": [872590740, 872590741, 872590743, 872590745, 872590746, 872590753, 872590740], "tags": {"addr:city": "Str\u00e1\u017ene", "addr:conscriptionnumber": "99", "addr:country": "SK", "addr:housenumber": "99/9", "addr:postcode": "07652", "addr:street": "Kameneck\u00e1", "addr:streetnumber": "9", "amenity": "pub", "building": "yes", "import": "budovy201004", "name": "Kolk\u00e1re\u0148", "ref:minvskaddress": "30624330", "source": "kapor2", "source:addr": "minvskaddress 2022-10"}}, {"type": "way", "id": 149564775, "nodes": [8977040960, 1625206490, 1625206670, 1625206672, 8977040960], "tags": {"addr:city": "Mal\u00fd Kamenec", "addr:conscriptionnumber": "30", "addr:country": "SK", "addr:housenumber": "30", "addr:place": "Mal\u00fd Kamenec", "addr:postcode": "07636", "amenity": "pub", "building": "detached", "name": "Bistro Tarbucka", "ref:minvskaddress": "30560332", "source": "kapor2", "source:addr": "minvskaddress 2022-04"}}, {"type": "way", "id": 149565811, "nodes": [1625218091, 1625218109, 1625217946, 1625217941, 1625217975, 1625217967, 1625218091], "tags": {"addr:city": "Slovensk\u00e9 Nov\u00e9 Mesto", "addr:conscriptionnumber": "16", "addr:country": "SK", "addr:housenumber": "16/4", "addr:postcode": "07633", "addr:street": "Hrani\u010dn\u00e1", "addr:streetnumber": "4", "amenity": "pub", "building": "yes", "name": "Tulip\u00e1n", "ref:minvskaddress": "7100373577", "source": "kapor2", "source:addr": "minvskaddress 2022-09", "tourism": "guest_house", "website": "http://www.rest.tulipan.szm.com/"}}, {"type": "way", "id": 149568050, "nodes": [1625217718, 1625217684, 1625217676, 1625217678, 1625217683, 1625217701, 1625217699, 1625217715, 1625217718], "tags": {"addr:city": "Slovensk\u00e9 Nov\u00e9 Mesto", "addr:conscriptionnumber": "194", "addr:country": "SK", "addr:housenumber": "194/111", "addr:postcode": "07633", "addr:street": "Hlavn\u00e1", "addr:streetnumber": "111", "amenity": "pub", "building": "yes", "name": "Petro", "ref:minvskaddress": "30617763", "source": "kapor2", "source:addr": "minvskaddress 2022-09"}}, {"type": "way", "id": 359169162, "nodes": [3639278111, 3639278112, 3639278114, 3639278113, 3639278111], "tags": {"amenity": "pub", "building": "yes"}}, {"type": "way", "id": 444543391, "nodes": [4420110509, 4420110510, 4420110511, 4420110512, 4420110509], "tags": {"amenity": "pub", "building": "yes"}}, {"type": "way", "id": 458272970, "nodes": [4543075583, 4543075584, 4543075585, 4543075586, 4543075583], "tags": {"amenity": "pub", "building": "yes", "note": "Nyitva tart\u00e1s: csak ny\u00e1ron"}}, {"type": "way", "id": 467785333, "nodes": [4623876974, 4623876976, 4623876975, 4623876973, 4623876974], "tags": {"amenity": "pub", "building": "yes", "name": "Csok\u00e1ny bisztr\u00f3", "source": "turistautak.hu", "source:date": "2013-05-21", "toilets:wheelchair": "no", "url": "http://turistautak.hu/poi.php?id=153760", "wheelchair": "no"}}]}