{"version": 0.6, "generator": "Overpass API 0.7.59 e21c39fe", "osm3s": {"timestamp_osm_base": "2023-01-17T15:16:20Z", "copyright": "The data included in this document is from www.openstreetmap.org. The data is made available under ODbL."}, "elements": [{"type": "node", "id": 321841392, "lat": 47.4465291, "lon": 18.101908, "tags": {"amenity": "pub", "created_by": "Potlatch 0.10f", "name": "K\u0151s\u00e1rk\u00e1ny kocsma"}}, {"type": "node", "id": 442972589, "lat": 47.5186155, "lon": 18.5293148}, {"type": "node", "id": 499615499, "lat": 47.6513566, "lon": 17.9225952, "tags": {"amenity": "pub", "name": "Feny\u0151 Boroz\u00f3"}}, {"type": "node", "id": 499616693, "lat": 47.6497622, "lon": 17.9286758, "tags": {"amenity": "pub", "name": "Telepi kocsma"}}, {"type": "node", "id": 1156340944, "lat": 47.4809168, "lon": 18.5148943, "tags": {"amenity": "pub", "name": "Ar\u00e9na S\u00f6r\u00f6z\u0151"}}, {"type": "node", "id": 1156341186, "lat": 47.4779327, "lon": 18.5181381, "tags": {"amenity": "pub", "name": "Royal Pressz\u00f3", "toilets:wheelchair": "limited", "wheelchair": "limited"}}, {"type": "node", "id": 1373958057, "lat": 47.7422725, "lon": 18.1182683, "tags": {"amenity": "pub"}}, {"type": "node", "id": 1673939206, "lat": 47.6294167, "lon": 18.453177, "tags": {"amenity": "pub", "name": "Szieszta vend\u00e9gl\u0151", "opening_hours": "Mo-Th 09:00-12:30, 16:00-22:00; Fr 09:00-12:30, 16:00-04:00; Sa 09:00-04:00; Su 09:00-24:00"}}, {"type": "node", "id": 1774426399, "lat": 47.6626386, "lon": 18.3209075, "tags": {"amenity": "pub"}}, {"type": "node", "id": 1774426464, "lat": 47.6671798, "lon": 18.3232678, "tags": {"addr:postcode": "2890", "addr:street": "Szom\u00f3di \u00fat", "amenity": "pub"}}, {"type": "node", "id": 1975866203, "lat": 47.5840432, "lon": 18.39762, "tags": {"addr:postcode": "2800", "addr:street": "F\u0151 t\u00e9r", "amenity": "pub", "name": "Sak\u00e1ltanya Pub", "name:it": "Pub"}}, {"type": "node", "id": 2277282298, "lat": 47.6616572, "lon": 18.4434525, "tags": {"addr:city": "Tardos", "addr:housenumber": "1", "addr:postcode": "2834", "addr:street": "D\u00f3zsa Gy\u00f6rgy utca", "amenity": "pub", "internet_access": "no", "name": "Hegyalja kocsma"}}, {"type": "node", "id": 2334718971, "lat": 47.5193089, "lon": 18.4968088, "tags": {"amenity": "pub", "name": "Liget s\u00f6r\u00f6z\u0151"}}, {"type": "node", "id": 2357316485, "lat": 47.5916291, "lon": 18.3925056, "tags": {"addr:postcode": "2800", "addr:street": "Kond vez\u00e9r utca", "amenity": "pub", "name": "B\u00f6gre s\u00f6r\u00f6z\u0151", "toilets:wheelchair": "yes", "wheelchair": "yes"}}, {"type": "node", "id": 2359856548, "lat": 47.5637528, "lon": 18.4243993, "tags": {"addr:postcode": "2800", "addr:street": "Aradi utca", "amenity": "pub"}}, {"type": "node", "id": 2441942249, "lat": 47.7208224, "lon": 18.314574, "tags": {"amenity": "pub", "name": "O\u00e1zis s\u00f6r\u00f6z\u0151"}}, {"type": "node", "id": 2448628492, "lat": 47.6574859, "lon": 18.3258951, "tags": {"addr:street": "Bezer\u00e9di utca", "amenity": "pub", "name": "Tulip\u00e1n s\u00f6r\u00f6z\u0151"}}, {"type": "node", "id": 2449989740, "lat": 47.6489262, "lon": 18.3010244, "tags": {"addr:postcode": "2890", "addr:street": "Kom\u00e1romi utca", "amenity": "pub", "name": "Korona S\u00f6r\u00f6z\u0151"}}, {"type": "node", "id": 2476459616, "lat": 47.6466679, "lon": 18.3062013, "tags": {"addr:postcode": "2890", "addr:street": "Kom\u00e1romi utca", "amenity": "pub", "name": "Papp P\u00e1l kocsma"}}, {"type": "node", "id": 2485474585, "lat": 47.6670478, "lon": 18.3232703, "tags": {"addr:postcode": "2890", "addr:street": "Szom\u00f3di \u00fat", "amenity": "pub", "name": "777 Sport S\u00f6r\u00f6z\u0151"}}, {"type": "node", "id": 2507781766, "lat": 47.6464642, "lon": 18.3579703, "tags": {"addr:postcode": "2836", "addr:street": "Pet\u0151fi S\u00e1ndor utca", "amenity": "pub", "name": "J\u00f3bar\u00e1tok S\u00f6r\u00f6z\u0151je", "opening_hours": "Mo-Th 06:00-22:00; Fr-Sa 06:00-24:00; Su 06:00-22:00"}}, {"type": "node", "id": 2507781937, "lat": 47.6484521, "lon": 18.3123497, "tags": {"amenity": "pub"}}, {"type": "node", "id": 2525661412, "lat": 47.6361131, "lon": 18.3096257, "tags": {"addr:postcode": "2890", "addr:street": "Dadi utca", "amenity": "pub", "name": "Sn\u00f3bli S\u00f6r\u00f6z\u0151"}}, {"type": "node", "id": 2525695445, "lat": 47.6403882, "lon": 18.3015712, "tags": {"addr:postcode": "2890", "addr:street": "Kiss Ern\u0151 utca", "amenity": "pub", "name": "Horv\u00e1th S\u00f6r\u00f6z\u0151"}}, {"type": "node", "id": 2525695458, "lat": 47.6400413, "lon": 18.3019021, "tags": {"addr:postcode": "2890", "addr:street": "Kiss Ern\u0151 utca", "amenity": "pub", "name": "Zsigmond Kiskocsma"}}, {"type": "node", "id": 2707864851, "lat": 47.6834757, "lon": 18.3417234, "tags": {"addr:street": "Tatai utca", "amenity": "pub", "name": "Plat\u00e1n s\u00f6r\u00f6z\u0151", "opening_hours": "07:00-20:00", "toilets:wheelchair": "limited", "wheelchair": "no"}}, {"type": "node", "id": 2755172262, "lat": 47.5931682, "lon": 18.3765726, "tags": {"addr:postcode": "2800", "addr:street": "Gerecse utca", "amenity": "pub", "name": "Kertv\u00e1rosi S\u00f6r\u00f6z\u0151", "toilets:wheelchair": "yes", "wheelchair": "limited"}}, {"type": "node", "id": 2755172370, "lat": 47.6020315, "lon": 18.3768779, "tags": {"addr:postcode": "2800", "addr:street": "J\u00e1szai Mari \u00fat", "amenity": "pub"}}, {"type": "node", "id": 2819250018, "lat": 47.6620096, "lon": 18.4541228}, {"type": "node", "id": 2819250019, "lat": 47.6620076, "lon": 18.4542198}, {"type": "node", "id": 2819250020, "lat": 47.6622119, "lon": 18.4542671}, {"type": "node", "id": 2819250021, "lat": 47.6622473, "lon": 18.4544523}, {"type": "node", "id": 2819250022, "lat": 47.6623186, "lon": 18.4544199}, {"type": "node", "id": 2819250023, "lat": 47.6622632, "lon": 18.4541757}, {"type": "node", "id": 2831601227, "lat": 47.619499, "lon": 18.3764787, "tags": {"addr:postcode": "2837", "addr:street": "Valusek utca", "amenity": "pub"}}, {"type": "node", "id": 2847386347, "lat": 47.6538321, "lon": 18.3237139, "tags": {"addr:postcode": "2890", "addr:street": "Mikov\u00e9nyi utca", "amenity": "pub", "name": "Arthur Kocsma"}}, {"type": "node", "id": 2880870009, "lat": 47.5183464, "lon": 18.5295396}, {"type": "node", "id": 2880870012, "lat": 47.5183842, "lon": 18.5291155}, {"type": "node", "id": 2880870017, "lat": 47.5184278, "lon": 18.5293322}, {"type": "node", "id": 2880870027, "lat": 47.5185629, "lon": 18.5294486}, {"type": "node", "id": 2880870198, "lat": 47.5182493, "lon": 18.5294566}, {"type": "node", "id": 2906805870, "lat": 47.744152, "lon": 18.4902957}, {"type": "node", "id": 2906805871, "lat": 47.7441647, "lon": 18.4904805}, {"type": "node", "id": 2906805872, "lat": 47.7441961, "lon": 18.4903529}, {"type": "node", "id": 2906805873, "lat": 47.7442044, "lon": 18.4904745}, {"type": "node", "id": 2906805874, "lat": 47.7442362, "lon": 18.490283}, {"type": "node", "id": 2906805875, "lat": 47.7442405, "lon": 18.4903462}, {"type": "node", "id": 2917911198, "lat": 47.7449635, "lon": 18.4928767}, {"type": "node", "id": 2917911199, "lat": 47.7449865, "lon": 18.4929755}, {"type": "node", "id": 2917911200, "lat": 47.7450218, "lon": 18.4928466}, {"type": "node", "id": 2917911601, "lat": 47.7450448, "lon": 18.4929454}, {"type": "node", "id": 2928453486, "lat": 47.5324525, "lon": 18.0753642, "tags": {"amenity": "pub", "name": "Tibi Kocsma", "operator": "T\u00e1los Tibor"}}, {"type": "node", "id": 2946508141, "lat": 47.6625548, "lon": 18.4475436}, {"type": "node", "id": 2946508142, "lat": 47.6625983, "lon": 18.4476599}, {"type": "node", "id": 2946508143, "lat": 47.6625159, "lon": 18.4477329}, {"type": "node", "id": 2946508144, "lat": 47.662471, "lon": 18.4476128}, {"type": "node", "id": 2953572462, "lat": 47.5932429, "lon": 18.0026678, "tags": {"amenity": "pub"}}, {"type": "node", "id": 2953573152, "lat": 47.5768481, "lon": 18.0653437, "tags": {"amenity": "pub", "name": "Csorba Cs\u00e1rda"}}, {"type": "node", "id": 2953573311, "lat": 47.5780848, "lon": 18.0607174, "tags": {"amenity": "pub"}}, {"type": "node", "id": 2961608970, "lat": 47.3684807, "lon": 18.0281627, "tags": {"addr:city": "S\u00far", "addr:postcode": "2889", "amenity": "pub", "name": "Fiser kocsma", "opening_hours": "05:00-22:00", "smoking": "outside"}}, {"type": "node", "id": 3008464807, "lat": 47.3921853, "lon": 18.3904375, "tags": {"amenity": "pub", "name": "Fe-R\u00f3 s\u00f6r\u00f6z\u0151", "name:de": "Fe-R\u00f3 Biergarten", "source": "survey"}}, {"type": "node", "id": 3164145324, "lat": 47.3502579, "lon": 18.2694218, "tags": {"amenity": "pub", "name": "Vad\u00e1sz s\u00f6r\u00f6z\u0151", "name:it": "Vad\u00e1sz S\u00f6r\u00f6z\u0151"}}, {"type": "node", "id": 3187699474, "lat": 47.5220098, "lon": 18.3163413, "tags": {"amenity": "pub"}}, {"type": "node", "id": 3468026259, "lat": 47.526, "lon": 18.372683, "tags": {"amenity": "pub", "name": "V\u00e9rtes cs\u00e1rda", "source": "turistautak.hu", "source:date": "2011-09-03", "url": "http://turistautak.hu/poi.php?id=6885"}}, {"type": "node", "id": 3468026330, "lat": 47.509785, "lon": 18.367203, "tags": {"amenity": "pub", "source": "turistautak.hu", "source:date": "2011-09-03", "url": "http://turistautak.hu/poi.php?id=94575"}}, {"type": "node", "id": 3468026348, "lat": 47.5622498, "lon": 18.3570755, "tags": {"amenity": "pub", "name": "F\u00e1c\u00e1nkert S\u00f6r\u00f6z\u0151", "source": "turistautak.hu", "source:date": "2013-01-15", "url": "http://turistautak.hu/poi.php?id=27537"}}, {"type": "node", "id": 3470067902, "lat": 47.5452525, "lon": 18.4242381, "tags": {"addr:postcode": "2800", "addr:street": "Viola utca", "amenity": "pub", "name": "Ak\u00e1cfa italbolt", "name:it": "Ak\u00e1cfa Italbolt", "source": "turistautak.hu", "source:date": "2011-09-03", "url": "http://turistautak.hu/poi.php?id=5565"}}, {"type": "node", "id": 3470067922, "lat": 47.590033, "lon": 18.365467, "tags": {"addr:postcode": "2800", "addr:street": "Szent Gy\u00f6rgy utca", "amenity": "pub", "name": "Hat\u00e1r pressz\u00f3", "name:it": "Hat\u00e1r Pressz\u00f3", "source": "turistautak.hu", "source:date": "2011-09-03", "url": "http://turistautak.hu/poi.php?id=32124"}}, {"type": "node", "id": 3470067925, "lat": 47.5445764, "lon": 18.4549563, "tags": {"addr:postcode": "2800", "addr:street": "Bulcs\u00fa utca", "amenity": "pub", "name": "Kakukk kocsma", "source": "survey", "survey:date": "2020-02-08", "url": "http://turistautak.hu/poi.php?id=13240"}}, {"type": "node", "id": 3470067929, "lat": 47.596867, "lon": 18.370317, "tags": {"addr:postcode": "2800", "addr:street": "M\u00f3ricz Zsigmond utca", "amenity": "pub", "name": "Koccint\u00f3 kocsma", "name:it": "Koccint\u00f3 Kocsma", "source": "turistautak.hu", "source:date": "2011-09-03", "url": "http://turistautak.hu/poi.php?id=32123"}}, {"type": "node", "id": 3470067930, "lat": 47.587067, "lon": 18.363817, "tags": {"addr:postcode": "2800", "addr:street": "Sz\u0151l\u0151domb utca", "amenity": "pub", "name": "Krisztina s\u00f6r\u00f6z\u0151", "source": "turistautak.hu", "source:date": "2011-09-03", "url": "http://turistautak.hu/poi.php?id=32126"}}, {"type": "node", "id": 3470067931, "lat": 47.58269, "lon": 18.38474, "tags": {"addr:postcode": "2800", "addr:street": "R\u00e9ti utca", "amenity": "pub", "name": "Laguna s\u00f6r\u00f6z\u0151", "name:it": "Laguna S\u00f6r\u00f6z\u0151", "source": "turistautak.hu", "source:date": "2011-09-03", "toilets:wheelchair": "yes", "url": "http://turistautak.hu/poi.php?id=31855", "wheelchair": "limited"}}, {"type": "node", "id": 3470067933, "lat": 47.58205, "lon": 18.39019, "tags": {"addr:postcode": "2800", "addr:street": "D\u00f3zsakert utca", "amenity": "pub", "name": "Mal\u00e1ta Pub (Cofi&Indi kocsm\u00e1ja)", "source": "turistautak.hu", "source:date": "2010-10-27", "url": "http://turistautak.hu/poi.php?id=1172"}}, {"type": "node", "id": 3470067943, "lat": 47.561433, "lon": 18.420667, "tags": {"addr:postcode": "2800", "amenity": "pub", "name": "Sarokh\u00e1z s\u00f6r\u00f6z\u0151", "source": "turistautak.hu", "source:date": "2012-04-10", "url": "http://turistautak.hu/poi.php?id=136975"}}, {"type": "node", "id": 3470067950, "lat": 47.55995, "lon": 18.414233, "tags": {"addr:postcode": "2800", "addr:street": "Szent Borb\u00e1la \u00fat", "amenity": "pub", "name": "Toborz\u00f3 s\u00f6r\u00f6z\u0151", "source": "turistautak.hu", "source:date": "2010-10-27", "url": "http://turistautak.hu/poi.php?id=23987"}}, {"type": "node", "id": 3470067956, "lat": 47.589467, "lon": 18.367017, "tags": {"addr:postcode": "2800", "addr:street": "Dr. Vit\u00e1lis Istv\u00e1n utca", "amenity": "pub", "name": "V\u00f6r\u00f6sr\u00f3ka s\u00f6r\u00f6z\u0151", "name:it": "V\u00f6r\u00f6sr\u00f3ka S\u00f6r\u00f6z\u0151", "source": "turistautak.hu", "source:date": "2011-09-03", "url": "http://turistautak.hu/poi.php?id=32125"}}, {"type": "node", "id": 3470068514, "lat": 47.543499, "lon": 18.4589845, "tags": {"addr:postcode": "2800", "addr:street": "Szabadkai utca", "amenity": "pub", "name": "Joker S\u00f6r\u00f6z\u0151", "source": "turistautak.hu", "source:date": "2011-09-03", "url": "http://turistautak.hu/poi.php?id=94568"}}, {"type": "node", "id": 3470078893, "lat": 47.665608, "lon": 18.4598038, "tags": {"amenity": "pub", "name": "St. Hubertus s\u00f6r\u00f6z\u0151 Z\u00c1RVA", "source": "turistautak.hu", "source:date": "2011-05-08", "url": "http://turistautak.hu/poi.php?id=56771"}}, {"type": "node", "id": 3470079313, "lat": 47.7318753, "lon": 18.3264458, "tags": {"amenity": "pub", "source": "turistautak.hu", "source:date": "2011-05-08", "url": "http://turistautak.hu/poi.php?id=41304"}}, {"type": "node", "id": 3470096876, "lat": 47.398333, "lon": 18.069255, "tags": {"amenity": "pub", "name": "T\u00f3 bisztr\u00f3", "source": "turistautak.hu", "source:date": "2011-06-25", "url": "http://turistautak.hu/poi.php?id=32151"}}, {"type": "node", "id": 3470097531, "lat": 47.5106275, "lon": 18.0019126, "tags": {"amenity": "pub"}}, {"type": "node", "id": 3471788305, "lat": 47.65163, "lon": 17.920656, "tags": {"amenity": "pub", "source": "turistautak.hu", "source:date": "2013-09-16", "url": "http://turistautak.hu/poi.php?id=159439"}}, {"type": "node", "id": 3474939097, "lat": 47.354467, "lon": 18.275217, "tags": {"addr:city": "Cs\u00f3kak\u0151", "addr:housenumber": "25", "addr:postcode": "8074", "addr:street": "V\u00e1r utca", "amenity": "pub", "name": "Coffea Ravenna - N\u00e1dfedeles s\u00f6r\u00f6z\u0151", "name:it": "Coffee Ravenna", "opening_hours": "Mo-Fr 09:00-22:00; Sa,Su 09:00-24:00", "source": "turistautak.hu", "source:date": "2011-09-03", "url": "http://turistautak.hu/poi.php?id=10763"}}, {"type": "node", "id": 3474939378, "lat": 47.360536, "lon": 18.109692, "tags": {"amenity": "pub", "source": "turistautak.hu", "source:date": "2011-06-25", "url": "http://turistautak.hu/poi.php?id=29820", "wheelchair": "no"}}, {"type": "node", "id": 3474939380, "lat": 47.360705, "lon": 18.109592, "tags": {"amenity": "pub", "source": "turistautak.hu", "source:date": "2011-06-25", "url": "http://turistautak.hu/poi.php?id=29818", "wheelchair": "no"}}, {"type": "node", "id": 3474948073, "lat": 47.39525, "lon": 18.471533, "tags": {"addr:city": "Cs\u00e1kv\u00e1r", "addr:housenumber": "35", "addr:postcode": "8083", "addr:street": "Kossuth utca", "amenity": "pub", "name": "Csalog\u00e1ny s\u00f6r\u00f6z\u0151", "phone": "+36 22 354 048", "source": "turistautak.hu", "source:date": "2011-09-03", "url": "http://turistautak.hu/poi.php?id=30747"}}, {"type": "node", "id": 3474948074, "lat": 47.389967, "lon": 18.453083, "tags": {"amenity": "pub", "name": "Cseh\u00f3 s\u00f6r\u00f6z\u0151", "source": "turistautak.hu", "source:date": "2011-09-03", "url": "http://turistautak.hu/poi.php?id=20003"}}, {"type": "node", "id": 3474948911, "lat": 47.3969, "lon": 18.456383, "tags": {"amenity": "pub", "description": "Nyitva h\u00e9tf\u0151t\u0151l cs\u00fct\u00f6rt\u00f6kig 7:30-21:00, p\u00e9nteken 7:30-24:00, szombat 8:00-24:00, vas\u00e1rnap 8:00-21:00", "name": "J\u00e4ger pressz\u00f3", "source": "turistautak.hu", "source:date": "2011-09-03", "url": "http://turistautak.hu/poi.php?id=52873"}}, {"type": "node", "id": 3474948974, "lat": 47.391712, "lon": 18.458597, "tags": {"amenity": "pub", "name": "V\u00e1rosk\u00fat Iv\u00f3", "source": "turistautak.hu", "source:date": "2011-09-03", "url": "http://turistautak.hu/poi.php?id=34273", "wheelchair": "limited"}}, {"type": "node", "id": 3474949059, "lat": 47.4293936, "lon": 18.5267681, "tags": {"amenity": "pub", "source": "turistautak.hu", "source:date": "2011-09-03", "url": "http://turistautak.hu/poi.php?id=77683"}}, {"type": "node", "id": 3474949079, "lat": 47.450053, "lon": 18.5371, "tags": {"amenity": "pub", "source": "turistautak.hu", "source:date": "2011-09-03", "url": "http://turistautak.hu/poi.php?id=5260"}}, {"type": "node", "id": 3487700677, "lat": 47.48989, "lon": 18.25407, "tags": {"amenity": "pub", "name": "H\u00f6rpint\u0151 kocsma", "source": "turistautak.hu", "source:date": "2011-02-19", "url": "http://turistautak.hu/poi.php?id=96456"}}, {"type": "node", "id": 3487700795, "lat": 47.487607, "lon": 18.323607, "tags": {"amenity": "pub", "name": "R\u00e1k\u00f3czi pressz\u00f3", "source": "turistautak.hu", "source:date": "2011-09-03", "url": "http://turistautak.hu/poi.php?id=47616"}}, {"type": "node", "id": 3627693382, "lat": 47.5778048, "lon": 18.405815, "tags": {"addr:postcode": "2800", "addr:street": "Ifj\u00fas\u00e1g \u00fat", "amenity": "pub", "internet_access": "wlan", "name": "Z\u00f6ld Szalon S\u00f6r\u00f6z\u0151", "name:hu": "Green Pub", "opening_hours": "Mo-Su 07:00-22:00", "toilets:wheelchair": "yes", "wheelchair": "limited"}}, {"type": "node", "id": 3627713761, "lat": 47.5733625, "lon": 18.406531, "tags": {"addr:postcode": "2800", "addr:street": "S\u00e1rberki lak\u00f3telep", "amenity": "pub", "name": "Horv\u00e1th"}}, {"type": "node", "id": 3648118480, "lat": 47.5968406, "lon": 18.3956829}, {"type": "node", "id": 3648118481, "lat": 47.5968776, "lon": 18.3958475}, {"type": "node", "id": 3648118482, "lat": 47.596926, "lon": 18.3956407}, {"type": "node", "id": 3648118483, "lat": 47.596963, "lon": 18.3958053}, {"type": "node", "id": 4119130375, "lat": 47.5008222, "lon": 18.1377483, "tags": {"amenity": "pub"}}, {"type": "node", "id": 4119130377, "lat": 47.5043402, "lon": 18.1456853, "tags": {"amenity": "pub"}}, {"type": "node", "id": 4119130380, "lat": 47.4976297, "lon": 18.1442961, "tags": {"amenity": "pub"}}, {"type": "node", "id": 4353663222, "lat": 47.4295613, "lon": 18.229409, "tags": {"amenity": "pub", "name": "V\u00e9rtes pressz\u00f3"}}, {"type": "node", "id": 4414693878, "lat": 47.7341745, "lon": 18.3282056, "tags": {"amenity": "pub", "name": "B\u00fcf\u00e9", "outdoor_seating": "yes", "toilets:wheelchair": "no", "wheelchair": "no"}}, {"type": "node", "id": 4583344364, "lat": 47.7339331, "lon": 18.3322009, "tags": {"addr:city": "Dunaalm\u00e1s", "addr:postcode": "2545", "addr:street": "Alm\u00e1si utca", "amenity": "pub", "name": "Joker s\u00f6r\u00f6z\u0151", "name:it": "Joker"}}, {"type": "node", "id": 4743226128, "lat": 47.6423567, "lon": 17.9773301}, {"type": "node", "id": 4743226129, "lat": 47.6423195, "lon": 17.9774626}, {"type": "node", "id": 4743226130, "lat": 47.6420085, "lon": 17.9772638}, {"type": "node", "id": 4743226131, "lat": 47.6420457, "lon": 17.9771423}, {"type": "node", "id": 4784607022, "lat": 47.7415071, "lon": 18.1237664, "tags": {"amenity": "pub", "name": "Indian's Pub"}}, {"type": "node", "id": 4784607023, "lat": 47.7414179, "lon": 18.1237431, "tags": {"amenity": "pub", "name": "Brigeti"}}, {"type": "node", "id": 4784620934, "lat": 47.7406561, "lon": 18.1264136, "tags": {"amenity": "pub", "opening_hours": "Mo-Sa 06:00-21:00; Su 07:00-21:00"}}, {"type": "node", "id": 4799913303, "lat": 47.5616792, "lon": 18.420028, "tags": {"amenity": "pub", "name": "Kis Casa S\u00f6r\u00f6z\u0151"}}, {"type": "node", "id": 4933473994, "lat": 47.554819, "lon": 18.4491065, "tags": {"addr:postcode": "2800", "addr:street": "Rakt\u00e1r utca", "amenity": "pub", "fixme": "verify", "name": "Telepi Soroz\u0151", "source": "route4u"}}, {"type": "node", "id": 4933474009, "lat": 47.5582035, "lon": 18.4264925, "tags": {"addr:postcode": "2800", "addr:street": "V\u00e1j\u00e1r k\u00f6z", "amenity": "pub", "fixme": "verify", "name": "Troszti Klub", "source": "route4u"}}, {"type": "node", "id": 4933474325, "lat": 47.5634379, "lon": 18.4038291, "tags": {"addr:postcode": "2800", "addr:street": "K\u00e1rolyi Mih\u00e1ly utca", "amenity": "pub", "fixme": "verify", "name": "Feh\u00e9r \u00d6k\u00f6r Italbolt", "source": "route4u"}}, {"type": "node", "id": 4933474335, "lat": 47.5681542, "lon": 18.4024418, "tags": {"addr:postcode": "2800", "addr:street": "Szelim utca", "amenity": "pub", "fixme": "verify", "name": "Sport S\u00f6r\u00f6z\u0151 \u00c9tterem", "source": "route4u"}}, {"type": "node", "id": 4933474341, "lat": 47.5695932, "lon": 18.3964077, "tags": {"addr:postcode": "2800", "addr:street": "V\u00f6lgy utca", "amenity": "pub", "fixme": "verify", "name": "Harasta Kocsma", "source": "route4u"}}, {"type": "node", "id": 4933474342, "lat": 47.569766, "lon": 18.402211, "tags": {"addr:postcode": "2800", "addr:street": "S\u00e1rberki utca", "amenity": "pub", "fixme": "verify", "name": "Sasf\u00e9szek S\u00f6r\u00f6z\u0151", "source": "route4u", "toilets:wheelchair": "yes", "wheelchair": "no"}}, {"type": "node", "id": 4933474746, "lat": 47.490491, "lon": 18.3166687, "tags": {"amenity": "pub", "name": "San-Tomasso", "source": "route4u"}}, {"type": "node", "id": 4933475542, "lat": 47.5476828, "lon": 18.4463713, "tags": {"addr:postcode": "2800", "addr:street": "G\u00e1bor \u00c1ron utca", "amenity": "pub", "fixme": "verify", "name": "Aranyhord\u00f3", "source": "route4u", "wheelchair": "limited"}}, {"type": "node", "id": 4933475554, "lat": 47.5516338, "lon": 18.4462103, "tags": {"addr:postcode": "2800", "addr:street": "T\u00e9l utca", "amenity": "pub", "fixme": "verify", "name": "Sarki Italbolt", "source": "route4u"}}, {"type": "node", "id": 4933475566, "lat": 47.5791028, "lon": 18.390762, "tags": {"addr:postcode": "2800", "addr:street": "Turul utca", "amenity": "pub", "fixme": "verify", "name": "Country S\u00f6r\u00f6z\u0151", "source": "route4u"}}, {"type": "node", "id": 4933475568, "lat": 47.579229, "lon": 18.3908715, "tags": {"addr:postcode": "2800", "addr:street": "Turul utca", "amenity": "pub", "fixme": "verify", "name": "K\u00e9k R\u00f3ka Italbolt", "source": "route4u", "toilets:wheelchair": "yes", "wheelchair": "yes"}}, {"type": "node", "id": 4933475576, "lat": 47.5804375, "lon": 18.4211901, "tags": {"addr:street": "Lejt\u0151 utca", "amenity": "pub", "fixme": "verify", "name": "Lejt\u0151 Club", "source": "route4u", "toilets:wheelchair": "limited", "wheelchair": "no"}}, {"type": "node", "id": 4933475666, "lat": 47.6119775, "lon": 18.5017737, "tags": {"addr:city": "Tarj\u00e1n", "addr:street": "Tatai utca", "amenity": "pub", "name": "Sancho S\u00f6r\u00f6z\u0151", "smoking": "outside", "source": "route4u", "toilets:wheelchair": "yes", "wheelchair": "yes"}}, {"type": "node", "id": 4933475753, "lat": 47.6491064, "lon": 18.509393, "tags": {"amenity": "pub", "fixme": "verify", "name": "Di\u00f3fa S\u00f6r\u00f6z\u0151", "source": "route4u", "toilets:wheelchair": "yes", "wheelchair": "yes"}}, {"type": "node", "id": 4939174033, "lat": 47.5739249, "lon": 18.3842219, "tags": {"addr:postcode": "2800", "addr:street": "Marasztok utca", "amenity": "pub", "fixme": "verify", "name": "Velence S\u00f6r\u00f6z\u0151", "source": "route4u"}}, {"type": "node", "id": 4939174054, "lat": 47.5560378, "lon": 18.4210533, "tags": {"addr:postcode": "2800", "addr:street": "Szent Borb\u00e1la \u00fat", "amenity": "pub", "fixme": "verify", "name": "Domino S\u00f6r\u00f6z\u0151", "source": "route4u"}}, {"type": "node", "id": 4939174233, "lat": 47.6502967, "lon": 18.3256707, "tags": {"addr:postcode": "2890", "addr:street": "Ady Endre utca", "amenity": "pub", "fixme": "verify", "name": "Oscar Bar", "source": "route4u"}}, {"type": "node", "id": 4939174276, "lat": 47.6022126, "lon": 18.3771189, "tags": {"addr:postcode": "2800", "addr:street": "J\u00e1szai Mari \u00fat", "amenity": "pub", "fixme": "verify", "name": "S\u00f6r\u00f6z\u0151", "source": "route4u"}}, {"type": "node", "id": 4939175536, "lat": 47.5772921, "lon": 18.3868361, "tags": {"addr:postcode": "2800", "addr:street": "D\u00f3zsa Gy\u00f6rgy \u00fat", "amenity": "pub", "fixme": "verify", "name": "K\u00f3borl\u00f3 S\u00f6r\u00f6z\u0151", "source": "route4u"}}, {"type": "node", "id": 4939176002, "lat": 47.5771133, "lon": 18.3873341, "tags": {"addr:postcode": "2800", "addr:street": "D\u00f3zsa Gy\u00f6rgy \u00fat", "amenity": "pub", "fixme": "verify", "name": "K\u00f3borl\u00f3", "source": "route4u", "toilets:wheelchair": "yes", "wheelchair": "yes"}}, {"type": "node", "id": 4939177743, "lat": 47.6196273, "lon": 18.3834711, "tags": {"addr:postcode": "2837", "addr:street": "Templom utca", "amenity": "pub", "fixme": "verify", "name": "Boroz\u00f3 S\u00f6r\u00f6z\u0151", "source": "route4u"}}, {"type": "node", "id": 4939178774, "lat": 47.68307, "lon": 18.3417535, "tags": {"addr:street": "Tatai utca", "amenity": "pub", "name": "Yo-Zan-Ti", "toilets:wheelchair": "yes", "wheelchair": "yes"}}, {"type": "node", "id": 4939178883, "lat": 47.5889836, "lon": 18.3930498, "tags": {"addr:postcode": "2800", "addr:street": "Gy\u0151ri \u00fat", "amenity": "pub", "fixme": "verify", "name": "Babylon S\u00f6r\u00f6z\u0151", "source": "route4u"}}, {"type": "node", "id": 4939179216, "lat": 47.5927622, "lon": 18.3923081, "tags": {"addr:postcode": "2800", "addr:street": "Reguly Antal t\u00e9r", "amenity": "pub", "fixme": "verify", "name": "Unikumh\u00e1z S\u00f6r\u00f6z\u0151", "source": "route4u"}}, {"type": "node", "id": 4939179276, "lat": 47.5820125, "lon": 18.3896758, "tags": {"addr:postcode": "2800", "addr:street": "D\u00f3zsakert utca", "amenity": "pub", "fixme": "verify", "name": "V\u00f6r\u00f6s Kakas S\u00f6r\u00f6z\u0151", "source": "route4u", "toilets:wheelchair": "yes", "wheelchair": "no"}}, {"type": "node", "id": 4940551937, "lat": 47.5765503, "lon": 18.4074998, "tags": {"addr:postcode": "2800", "addr:street": "Kod\u00e1ly Zolt\u00e1n t\u00e9r", "amenity": "pub", "fixme": "verify", "name": "Szivacs S\u00f6r\u00f6z\u0151", "source": "route4u", "toilets:wheelchair": "yes", "wheelchair": "yes"}}, {"type": "node", "id": 4940555178, "lat": 47.5848109, "lon": 18.3952551, "tags": {"addr:city": "Tatab\u00e1nya", "addr:housenumber": "1/a", "addr:postcode": "2800", "addr:street": "Gy\u0151ri \u00fat", "amenity": "pub", "name": "Roxxy Music Caf\u00e9", "name:it": "Roxy", "source": "route4u"}}, {"type": "node", "id": 4940558618, "lat": 47.6507448, "lon": 18.3245321, "tags": {"addr:postcode": "2890", "addr:street": "Alkotm\u00e1ny utca", "amenity": "pub", "fixme": "verify", "name": "Ucca B\u00e1r", "source": "route4u"}}, {"type": "node", "id": 4940560106, "lat": 47.6479147, "lon": 18.3286406, "tags": {"addr:postcode": "2890", "addr:street": "Ady Endre utca", "air_conditioning": "yes", "amenity": "pub", "fixme": "verify", "indoor_seating": "yes", "name": "Gyros B\u00e1r", "opening_hours": "Mo-Su 10:00-22:00", "outdoor_seating": "yes", "payment:credit_cards": "no", "payment:debit_cards": "yes", "smoking": "outside", "source": "route4u", "wheelchair": "yes"}}, {"type": "node", "id": 4940561026, "lat": 47.5569528, "lon": 18.4192939, "tags": {"amenity": "pub", "fixme": "verify", "name": "Sport S\u00f6r\u00f6z\u0151 \u00c9tterem", "source": "route4u", "toilets:wheelchair": "limited", "wheelchair": "limited"}}, {"type": "node", "id": 4940561325, "lat": 47.5926103, "lon": 18.4937274, "tags": {"amenity": "pub", "is_in": "N\u00e9met Nemzetis\u00e9gi Ifj\u00fas\u00e1gi T\u00e1bor;Tarj\u00e1n k\u00fclter\u00fclet", "name": "Pince A V\u00e9n Pr\u00e9shez"}}, {"type": "node", "id": 4940564580, "lat": 47.6450038, "lon": 18.3152362, "tags": {"addr:postcode": "2890", "addr:street": "Bercs\u00e9nyi utca", "amenity": "pub", "fixme": "verify", "name": "An-Zsu H\u00e1z Bisztro", "source": "route4u", "toilets:wheelchair": "yes", "wheelchair": "yes"}}, {"type": "node", "id": 4940566022, "lat": 47.6484763, "lon": 18.3264529, "tags": {"addr:city": "Tata", "addr:postcode": "2890", "addr:street": "T\u00f3part utca", "amenity": "pub", "fixme": "verify", "name": "Smogrovits J\u00e1nosn\u00e9", "source": "route4u"}}, {"type": "node", "id": 5139889505, "lat": 47.4925235, "lon": 18.2836606, "tags": {"addr:city": "Oroszl\u00e1ny", "addr:housenumber": "1", "addr:postcode": "2840", "addr:street": "Er\u0151m\u0171i t\u00f3part", "amenity": "pub", "fixme": "addr", "name": "Party B\u00fcf\u00e9", "opening_hours": "May-Sep Tu-Fr 14:00-19:00; May-Sep Sa-Su 14:00-20:00", "outdoor_seating": "yes", "smoking": "outside"}}, {"type": "node", "id": 5431623720, "lat": 47.6427706, "lon": 18.3422944, "tags": {"addr:city": "Tata", "addr:housenumber": "21", "addr:postcode": "2890", "addr:street": "Di\u00f3fa utca", "amenity": "pub", "name": "Ezerj\u00f3 Boroz\u00f3"}}, {"type": "node", "id": 5843946007, "lat": 47.4760285, "lon": 18.3963787, "tags": {"amenity": "pub", "name": "Gesztes k\u00e1v\u00e9z\u00f3"}}, {"type": "node", "id": 6449930481, "lat": 47.5004763, "lon": 18.0258313, "tags": {"amenity": "pub", "name": "Nimr\u00f3d S\u00f6r\u00f6z\u0151"}}, {"type": "node", "id": 6450051664, "lat": 47.4998547, "lon": 18.0196649, "tags": {"amenity": "pub", "name": "Sport B\u00fcf\u00e9"}}, {"type": "node", "id": 6450051668, "lat": 47.5008369, "lon": 18.0236238, "tags": {"amenity": "pub", "name": "Marencs\u00e1k B\u00fcf\u00e9"}}, {"type": "node", "id": 6838761677, "lat": 47.4811408, "lon": 18.3107463, "tags": {"amenity": "pub", "name": "M\u00e9sz\u00e1ros s\u00f6rh\u00e1z"}}, {"type": "node", "id": 6838761678, "lat": 47.4809042, "lon": 18.3117977, "tags": {"amenity": "pub", "name": "Demizson b\u00fcf\u00e9"}}, {"type": "node", "id": 6987873247, "lat": 47.5763349, "lon": 18.4065288}, {"type": "node", "id": 6987873248, "lat": 47.5763532, "lon": 18.4067601}, {"type": "node", "id": 6987873249, "lat": 47.5762727, "lon": 18.4067741}, {"type": "node", "id": 6987873250, "lat": 47.5762544, "lon": 18.4065427}, {"type": "node", "id": 6993983044, "lat": 47.501135, "lon": 18.0248238, "tags": {"addr:city": "Kisb\u00e9r", "addr:postcode": "2870", "addr:street": "Sz\u00e9chenyi utca", "amenity": "pub", "name": "Pikk \u00c1sz", "outdoor_seating": "yes", "payment:coins": "yes", "payment:maestro": "yes", "payment:notes": "yes", "payment:visa_electron": "yes", "smoking": "outside"}}, {"type": "node", "id": 7110568186, "lat": 47.5480927, "lon": 18.3332983, "tags": {"amenity": "pub", "name": "Gerend\u00e1s S\u00f6r\u00f6z\u0151", "smoking": "no"}}, {"type": "node", "id": 7235774676, "lat": 47.6646504, "lon": 18.3240205, "tags": {"amenity": "pub", "name": "Honv\u00e9d S\u00f6r\u00f6z\u0151", "source": "survey"}}, {"type": "node", "id": 7591364135, "lat": 47.3678864, "lon": 18.2111338}, {"type": "node", "id": 7591364136, "lat": 47.3679076, "lon": 18.2113838}, {"type": "node", "id": 7591364137, "lat": 47.367835, "lon": 18.2114002}, {"type": "node", "id": 7591364138, "lat": 47.367835, "lon": 18.2113823}, {"type": "node", "id": 7591364139, "lat": 47.3678129, "lon": 18.2113853}, {"type": "node", "id": 7591364140, "lat": 47.3678139, "lon": 18.2113585}, {"type": "node", "id": 7591364141, "lat": 47.3677927, "lon": 18.2113615}, {"type": "node", "id": 7591364142, "lat": 47.3677801, "lon": 18.2111807}, {"type": "node", "id": 7591364143, "lat": 47.3677925, "lon": 18.2111526}, {"type": "node", "id": 7591364144, "lat": 47.3679224, "lon": 18.2112962}, {"type": "node", "id": 7591364145, "lat": 47.3679155, "lon": 18.2112098}, {"type": "node", "id": 7595261910, "lat": 47.3714626, "lon": 18.2052591}, {"type": "node", "id": 7595261911, "lat": 47.3714885, "lon": 18.20532}, {"type": "node", "id": 7595261912, "lat": 47.3714962, "lon": 18.2053115}, {"type": "node", "id": 7595261913, "lat": 47.3715298, "lon": 18.2053923}, {"type": "node", "id": 7595261914, "lat": 47.3715231, "lon": 18.2054348}, {"type": "node", "id": 7595261915, "lat": 47.3714319, "lon": 18.2055113}, {"type": "node", "id": 7595261916, "lat": 47.3713628, "lon": 18.2053399}, {"type": "node", "id": 7595261926, "lat": 47.3713901, "lon": 18.2054076}, {"type": "node", "id": 8633806463, "lat": 47.6540055, "lon": 18.0981214}, {"type": "node", "id": 8633806464, "lat": 47.6539357, "lon": 18.0980217}, {"type": "node", "id": 8633806465, "lat": 47.6538646, "lon": 18.0981313}, {"type": "node", "id": 8633806466, "lat": 47.6539343, "lon": 18.0982311}, {"type": "node", "id": 8913983647, "lat": 47.6625697, "lon": 18.4475834}, {"type": "node", "id": 8941044933, "lat": 47.5182849, "lon": 18.5293701}, {"type": "node", "id": 9133118995, "lat": 47.5064938, "lon": 18.0337572, "tags": {"amenity": "pub", "name": "B\u00fcf\u00e9"}}, {"type": "node", "id": 9133345721, "lat": 47.5015246, "lon": 18.0351673, "tags": {"amenity": "pub", "name": "P\u00e1rduc S\u00f6r\u00f6z\u0151", "outdoor_seating": "yes", "shop": "lottery", "smoking": "outside"}}, {"type": "node", "id": 9354772907, "lat": 47.6497046, "lon": 17.9291465, "tags": {"amenity": "pub", "name": "Bet\u00e9r\u0151"}}, {"type": "node", "id": 9966498417, "lat": 47.7354551, "lon": 18.3596642}, {"type": "node", "id": 9966498418, "lat": 47.7355062, "lon": 18.3596443}, {"type": "node", "id": 9966498419, "lat": 47.7354385, "lon": 18.3595702}, {"type": "node", "id": 9966498420, "lat": 47.7355165, "lon": 18.3597028}, {"type": "node", "id": 9966498421, "lat": 47.7355752, "lon": 18.35968}, {"type": "node", "id": 9966498422, "lat": 47.7355484, "lon": 18.3595275}, {"type": "way", "id": 277435239, "nodes": [2819250018, 2819250019, 2819250020, 2819250021, 2819250022, 2819250023, 2819250018], "tags": {"amenity": "pub", "building": "yes", "name": "Z\u00f6ld Sas Kocsma Z\u00c1RVA !!!"}}, {"type": "way", "id": 284343318, "nodes": [2880870012, 442972589, 2880870027, 2880870017, 2880870009, 2880870198, 8941044933, 2880870012], "tags": {"amenity": "pub", "building": "yes", "name": "Vid\u00e1m Pelik\u00e1n"}}, {"type": "way", "id": 287008385, "nodes": [2906805870, 2906805871, 2906805873, 2906805872, 2906805875, 2906805874, 2906805870], "tags": {"amenity": "pub", "building": "retail", "internet_access": "wlan", "name": "Retro S\u00f6r\u00f6z\u0151", "opening_hours": "Su-Th 08:00-21:00; Fr,Sa 08:00-22:00", "toilets:wheelchair": "no", "wheelchair": "no"}}, {"type": "way", "id": 288235284, "nodes": [2917911198, 2917911200, 2917911601, 2917911199, 2917911198], "tags": {"addr:street": "\u00d6reghegyi \u00fat", "amenity": "pub", "building": "yes", "name": "Kocsis s\u00f6r\u00f6z\u0151"}}, {"type": "way", "id": 291235776, "nodes": [2946508141, 8913983647, 2946508142, 2946508143, 2946508144, 2946508141], "tags": {"amenity": "pub", "building": "yes", "internet_access": "no", "name": "Mal\u00e1ta Kocsma", "toilets:wheelchair": "yes", "wheelchair": "yes"}}, {"type": "way", "id": 360211901, "nodes": [3648118480, 3648118481, 3648118483, 3648118482, 3648118480], "tags": {"amenity": "pub", "name": "Hegyalja s\u00f6r\u00f6z\u0151", "opening_hours": "10:00-21:00"}}, {"type": "way", "id": 481383842, "nodes": [4743226128, 4743226129, 4743226130, 4743226131, 4743226128], "tags": {"amenity": "pub", "building": "yes", "name": "Patk\u00f3 S\u00f6r\u00f6z\u0151"}}, {"type": "way", "id": 746730899, "nodes": [6987873247, 6987873248, 6987873249, 6987873250, 6987873247], "tags": {"addr:city": "Tatab\u00e1nya", "amenity": "pub", "building": "yes", "building:levels": "1", "building:walls": "wood", "name": "Fah\u00e1z S\u00f6r\u00f6z\u0151"}}, {"type": "way", "id": 812745651, "nodes": [7591364135, 7591364145, 7591364144, 7591364136, 7591364137, 7591364138, 7591364139, 7591364140, 7591364141, 7591364142, 7591364143, 7591364135], "tags": {"amenity": "pub", "building": "yes", "name": "Csillag S\u00f6r\u00f6z\u0151"}}, {"type": "way", "id": 813129871, "nodes": [7595261910, 7595261911, 7595261912, 7595261913, 7595261914, 7595261915, 7595261926, 7595261916, 7595261910], "tags": {"amenity": "pub", "building": "yes", "name": "S\u00f3gorka S\u00f6r\u00f6z\u0151"}}, {"type": "way", "id": 931232232, "nodes": [8633806463, 8633806464, 8633806465, 8633806466, 8633806463], "tags": {"amenity": "pub", "building": "yes"}}, {"type": "way", "id": 1087761241, "nodes": [9966498422, 9966498421, 9966498420, 9966498418, 9966498417, 9966498419, 9966498422], "tags": {"amenity": "pub", "building": "yes"}}]}