{"version": 0.6, "generator": "Overpass API 0.7.59 e21c39fe", "osm3s": {"timestamp_osm_base": "2023-01-21T09:47:07Z", "copyright": "The data included in this document is from www.openstreetmap.org. The data is made available under ODbL."}, "elements": [{"type": "node", "id": 856683422, "lat": 46.1609601, "lon": 20.7596803, "tags": {"amenity": "fuel", "brand": "Petrom", "brand:wikidata": "Q1755034", "brand:wikipedia": "en:Petrom", "name": "Petrom"}}, {"type": "node", "id": 1339417439, "lat": 46.1670309, "lon": 20.7353228, "tags": {"amenity": "fuel", "name": "Aral", "shop": "yes"}}, {"type": "node", "id": 1339417442, "lat": 46.1668131, "lon": 20.7249768, "tags": {"amenity": "fuel", "brand": "Rompetrol", "brand:wikidata": "Q1788862", "brand:wikipedia": "en:Rompetrol", "contact:email": "infoline@rompetrol.com", "contact:phone": "+40 372 784 945", "contact:website": "https://www.rompetrol.ro/", "name": "Rompetrol", "opening_hours": "24/7"}}, {"type": "node", "id": 2400495652, "lat": 46.1671581, "lon": 20.7243668, "tags": {"amenity": "fuel", "contact:email": "infoline@rompetrol.com", "contact:phone": "+40 372 784 946", "contact:website": "https://www.rompetrol.ro/", "name": "Rompetrol", "opening_hours": "24/7"}}, {"type": "node", "id": 2400495763, "lat": 46.1664573, "lon": 20.7237797, "tags": {"amenity": "fuel", "brand": "OMV", "brand:wikidata": "Q168238", "brand:wikipedia": "en:OMV", "internet_access:fee": "no", "name": "OMV", "opening_hours": "24/7"}}, {"type": "node", "id": 5895845742, "lat": 46.1413147, "lon": 20.4878238}, {"type": "node", "id": 5895845743, "lat": 46.1412478, "lon": 20.4879151}, {"type": "node", "id": 5895845759, "lat": 46.1413457, "lon": 20.488064}, {"type": "node", "id": 5895845760, "lat": 46.1411713, "lon": 20.4877987}, {"type": "node", "id": 5895845761, "lat": 46.1412381, "lon": 20.4877073}, {"type": "node", "id": 5895845762, "lat": 46.1414125, "lon": 20.4879725}, {"type": "node", "id": 6017387151, "lat": 46.1681279, "lon": 20.705571}, {"type": "node", "id": 6017387152, "lat": 46.1679175, "lon": 20.7055883}, {"type": "node", "id": 6017387153, "lat": 46.1679247, "lon": 20.7057721}, {"type": "node", "id": 6017387154, "lat": 46.1681352, "lon": 20.7057548}, {"type": "way", "id": 624348707, "nodes": [5895845762, 5895845759, 5895845743, 5895845760, 5895845761, 5895845742, 5895845762], "tags": {"amenity": "fuel", "brand": "Lukoil", "building": "roof", "name": "Lukoil"}}, {"type": "way", "id": 638472140, "nodes": [6017387151, 6017387152, 6017387153, 6017387154, 6017387151], "tags": {"addr:city": "Nagylak", "amenity": "fuel", "building": "retail", "email": "info@normbenz.hu", "name": "Orlen", "operator": "Normbenz Magyarorsz\u00e1g Kft.", "website": "https://orlen.hu/"}}]}