{"version": 0.6, "generator": "Overpass API 0.7.59 e21c39fe", "osm3s": {"timestamp_osm_base": "2023-01-17T15:17:22Z", "copyright": "The data included in this document is from www.openstreetmap.org. The data is made available under ODbL."}, "elements": [{"type": "node", "id": 925840448, "lat": 46.0965227, "lon": 19.6781804, "tags": {"addr:city": "Subotica", "addr:country": "RS", "addr:housenumber": "3", "addr:postcode": "24000", "addr:street": "Rade Koncara", "amenity": "pub", "name": "Gentlman's pub", "website": "http://www.gentlemenspub-subotica.com"}}, {"type": "node", "id": 930041504, "lat": 46.1012494, "lon": 19.6683815, "tags": {"amenity": "pub", "internet_access": "wlan", "internet_access:fee": "no", "name": "Beer & Co.", "smoking": "yes", "wheelchair": "no"}}, {"type": "node", "id": 930932863, "lat": 46.1011933, "lon": 19.6705741, "tags": {"amenity": "pub", "name": "\u041a\u0430\u043d \u041a\u0430\u043d", "name:sr": "\u041a\u0430\u043d \u041a\u0430\u043d", "name:sr-Latn": "Kan Kan", "smoking": "yes"}}, {"type": "node", "id": 930932885, "lat": 46.1008805, "lon": 19.6708774, "tags": {"amenity": "pub", "name": "Cobra", "smoking": "yes"}}, {"type": "node", "id": 931095044, "lat": 46.1013129, "lon": 19.6688239, "tags": {"amenity": "pub", "internet_access": "no", "name": "Majo", "smoking": "yes"}}, {"type": "node", "id": 931360294, "lat": 45.9705297, "lon": 19.4225167}, {"type": "node", "id": 931360370, "lat": 45.9703942, "lon": 19.4225533}, {"type": "node", "id": 931360429, "lat": 45.9704123, "lon": 19.4227242}, {"type": "node", "id": 931360431, "lat": 45.9705408, "lon": 19.4226078}, {"type": "node", "id": 931360880, "lat": 45.9705493, "lon": 19.4226778}, {"type": "node", "id": 3020062693, "lat": 46.1275114, "lon": 19.3248684, "tags": {"amenity": "pub", "name": "Agytemet\u0151 S\u00f6r\u00f6z\u0151", "wheelchair": "no"}}, {"type": "node", "id": 3025501683, "lat": 46.1348397, "lon": 19.4225202, "tags": {"amenity": "pub", "name": "Sz\u0151l\u0151s Kocsma", "toilets:wheelchair": "no", "wheelchair": "no"}}, {"type": "node", "id": 3030145081, "lat": 46.1280974, "lon": 19.4710462, "tags": {"amenity": "pub", "name": "Csendes Pressz\u00f3"}}, {"type": "node", "id": 3034622126, "lat": 46.0867248, "lon": 19.4168409, "tags": {"amenity": "pub", "name": "O\u00e1zis vend\u00e9gl\u0151"}}, {"type": "node", "id": 3034622128, "lat": 46.0870794, "lon": 19.4179576, "tags": {"amenity": "pub", "name": "Vad\u00e1sz s\u00f6r\u00f6z\u0151"}}, {"type": "node", "id": 3034622753, "lat": 46.0830497, "lon": 19.4153934}, {"type": "node", "id": 3034622754, "lat": 46.0830697, "lon": 19.4154569}, {"type": "node", "id": 3034622756, "lat": 46.0831398, "lon": 19.4153344}, {"type": "node", "id": 3034622757, "lat": 46.0831598, "lon": 19.4153978}, {"type": "node", "id": 3034622793, "lat": 46.0849095, "lon": 19.421254}, {"type": "node", "id": 3034622794, "lat": 46.0849386, "lon": 19.4213507}, {"type": "node", "id": 3034622795, "lat": 46.0850022, "lon": 19.421196}, {"type": "node", "id": 3034622797, "lat": 46.0850313, "lon": 19.4212927}, {"type": "node", "id": 3034622871, "lat": 46.0884523, "lon": 19.4236039, "tags": {"amenity": "pub"}}, {"type": "node", "id": 3034913010, "lat": 46.0579724, "lon": 19.2616186, "tags": {"amenity": "pub", "name": "Szt\u00e1r pressz\u00f3"}}, {"type": "node", "id": 3034913804, "lat": 46.0524069, "lon": 19.2704789}, {"type": "node", "id": 3034913805, "lat": 46.0524584, "lon": 19.2705457}, {"type": "node", "id": 3034913806, "lat": 46.0524909, "lon": 19.2703443}, {"type": "node", "id": 3034913808, "lat": 46.0525424, "lon": 19.270411}, {"type": "node", "id": 3034913813, "lat": 46.0527809, "lon": 19.2687373}, {"type": "node", "id": 3034913818, "lat": 46.0528343, "lon": 19.2688032}, {"type": "node", "id": 3034913820, "lat": 46.0528662, "lon": 19.268594}, {"type": "node", "id": 3034913823, "lat": 46.0529196, "lon": 19.2686599}, {"type": "node", "id": 3035961609, "lat": 46.034116, "lon": 19.2088311, "tags": {"amenity": "pub", "name": "Fradi S\u00f6r\u00f6z\u0151"}}, {"type": "node", "id": 3035961617, "lat": 46.034523, "lon": 19.2088482, "tags": {"amenity": "pub", "name": "Sarok S\u00f6r\u00f6z\u0151", "opening_hours": "Mo-Sa 07:00-20:00; Su 07:00-20:00", "toilets:wheelchair": "no", "wheelchair": "no"}}, {"type": "node", "id": 3046933549, "lat": 46.1202722, "lon": 19.3222712, "tags": {"amenity": "pub", "name": "Du\u00f3 S\u00f6r\u00f6z\u0151"}}, {"type": "node", "id": 3077411140, "lat": 46.1208874, "lon": 19.3381465, "tags": {"addr:city": "B\u00e1csalm\u00e1s", "addr:country": "HU", "addr:housenumber": "26", "addr:postcode": "6430", "addr:street": "T\u00fcrr Istv\u00e1n utca", "amenity": "pub", "name": "Mik\u00f3 S\u00f6r\u00f6z\u0151"}}, {"type": "node", "id": 3105691550, "lat": 46.0880383, "lon": 19.763993, "tags": {"amenity": "pub"}}, {"type": "node", "id": 3389176273, "lat": 46.1011843, "lon": 19.6442188, "tags": {"amenity": "pub", "name": "Lud Zbunjen Normalan"}}, {"type": "node", "id": 4933469289, "lat": 46.131583, "lon": 19.3351576, "tags": {"amenity": "pub", "fixme": "verify", "name": "Kabak Kocsma", "source": "route4u", "toilets:wheelchair": "no", "wheelchair": "no"}}, {"type": "node", "id": 4933469292, "lat": 46.1358554, "lon": 19.3292566, "tags": {"amenity": "pub", "fixme": "verify", "name": "H\u00f6rpint\u0151 S\u00f6r\u00f6z\u0151", "source": "route4u", "toilets:wheelchair": "no", "wheelchair": "no"}}, {"type": "node", "id": 4933469389, "lat": 46.1188015, "lon": 19.3280646, "tags": {"amenity": "pub", "fixme": "verify", "name": "Alv\u00e9gi Italbolt", "source": "route4u", "toilets:wheelchair": "no", "wheelchair": "no"}}, {"type": "node", "id": 4933469397, "lat": 46.1268373, "lon": 19.3446506, "tags": {"amenity": "pub", "fixme": "verify", "name": "Bagolyv\u00e1r S\u00f6r\u00f6z\u0151", "source": "route4u", "toilets:wheelchair": "no", "wheelchair": "no"}}, {"type": "node", "id": 4940558880, "lat": 46.1142142, "lon": 19.4795186, "tags": {"amenity": "pub", "fixme": "verify", "name": "Kanyar Italbolt", "source": "route4u", "toilets:wheelchair": "no", "wheelchair": "no"}}, {"type": "node", "id": 5592174093, "lat": 46.0622265, "lon": 19.2547967, "tags": {"amenity": "pub", "name": "Fels\u0151v\u00e1rosi italbolt", "outdoor_seating": "yes", "smoking": "outside"}}, {"type": "node", "id": 6089156566, "lat": 46.1325639, "lon": 19.3235724, "tags": {"amenity": "pub", "name": "Zoli kocsma"}}, {"type": "node", "id": 9373053470, "lat": 46.0981824, "lon": 19.6609196, "tags": {"amenity": "pub", "name": "Woodstock Pub"}}, {"type": "node", "id": 9386836420, "lat": 46.1008824, "lon": 19.660614, "tags": {"amenity": "pub", "name": "Kod Grose"}}, {"type": "way", "id": 79788389, "nodes": [931360431, 931360294, 931360370, 931360429, 931360880, 931360431], "tags": {"addr:city": "Bajmok", "addr:country": "RS", "addr:postcode": "24210", "addr:street": "\u041c\u0438\u0458\u0435 \u041c\u0430\u043d\u0434\u0438\u045b\u0430", "amenity": "pub", "building": "yes", "internet_access": "no", "name": "\u041d\u0438\u043c\u0440\u043e\u0434", "name:hu": "Nimr\u00f3d", "name:sr": "\u041d\u0438\u043c\u0440\u043e\u0434", "name:sr-Latn": "Nimrod", "smoking": "yes", "wheelchair": "no"}}, {"type": "way", "id": 299476177, "nodes": [3034622795, 3034622797, 3034622794, 3034622793, 3034622795], "tags": {"amenity": "pub", "building": "yes", "name": "Plat\u00e1n kocsma"}}, {"type": "way", "id": 299476179, "nodes": [3034622754, 3034622753, 3034622756, 3034622757, 3034622754], "tags": {"amenity": "pub", "building": "yes", "name": "T\u00f3 pressz\u00f3", "toilets:wheelchair": "no", "wheelchair": "no"}}, {"type": "way", "id": 299497924, "nodes": [3034913823, 3034913818, 3034913813, 3034913820, 3034913823], "tags": {"amenity": "pub", "building": "yes", "name": "Hajnal cs\u00e1rda"}}, {"type": "way", "id": 299497925, "nodes": [3034913806, 3034913804, 3034913805, 3034913808, 3034913806], "tags": {"addr:city": "Madaras", "addr:housenumber": "83", "addr:postcode": "6456", "addr:street": "Szent Istv\u00e1n utca", "amenity": "pub", "building": "yes", "name": "Kisb\u00f3d\u00edt\u00f3"}}]}