{"version": 0.6, "generator": "Overpass API 0.7.59 e21c39fe", "osm3s": {"timestamp_osm_base": "2023-01-20T17:57:01Z", "copyright": "The data included in this document is from www.openstreetmap.org. The data is made available under ODbL."}, "elements": [{"type": "node", "id": 1928722593, "lat": 47.8359042, "lon": 22.6819034, "tags": {"amenity": "library"}}, {"type": "node", "id": 1930503232, "lat": 47.835967, "lon": 22.6809295}, {"type": "node", "id": 1930503290, "lat": 47.8358394, "lon": 22.6807723}, {"type": "node", "id": 1930503292, "lat": 47.836043, "lon": 22.6807926}, {"type": "node", "id": 1930503345, "lat": 47.8359154, "lon": 22.6806354}, {"type": "node", "id": 3751814907, "lat": 48.1283323, "lon": 22.3180391, "tags": {"amenity": "library"}}, {"type": "node", "id": 4436515733, "lat": 47.9954907, "lon": 22.5623453, "tags": {"amenity": "library"}}, {"type": "node", "id": 4513701490, "lat": 47.9553528, "lon": 22.3264005, "tags": {"addr:postcode": "4700", "addr:street": "Bajcsy-Zsilinszky Endre utca", "amenity": "library", "name": "K\u00e9pes G\u00e9za V\u00e1rosi K\u00f6nyvt\u00e1r", "name:hu": "K\u00e9pes G\u00e9za V\u00e1rosi K\u00f6nyvt\u00e1r", "opening_hours": "Tu-Sa 08:00-18:00+"}}, {"type": "node", "id": 8397278712, "lat": 48.1282437, "lon": 22.318095}, {"type": "node", "id": 8397278713, "lat": 48.128243, "lon": 22.317938}, {"type": "node", "id": 8397278714, "lat": 48.1282996, "lon": 22.3179375}, {"type": "node", "id": 8397278715, "lat": 48.1282991, "lon": 22.3178126}, {"type": "node", "id": 8397278716, "lat": 48.1283579, "lon": 22.317812}, {"type": "node", "id": 8397278717, "lat": 48.1283581, "lon": 22.3178588}, {"type": "node", "id": 8397278718, "lat": 48.1283983, "lon": 22.3178584}, {"type": "node", "id": 8397278719, "lat": 48.1283992, "lon": 22.3180935}, {"type": "node", "id": 9233854539, "lat": 47.992753, "lon": 22.5106103, "tags": {"amenity": "library"}}, {"type": "way", "id": 182692439, "nodes": [1930503292, 1930503345, 1930503290, 1930503232, 1930503292], "tags": {"amenity": "library", "building": "yes", "name": "O'sv\u00e1th Gy\u0171jtem\u00e9ny"}}, {"type": "way", "id": 904170633, "nodes": [8397278719, 8397278718, 8397278717, 8397278716, 8397278715, 8397278714, 8397278713, 8397278712, 8397278719], "tags": {"addr:city": "V\u00e1s\u00e1rosnam\u00e9ny", "addr:country": "HU", "addr:housename": "Bal\u00e1zs J\u00f3zsef V\u00e1rosi K\u00f6nyvt\u00e1r", "addr:housenumber": "5", "addr:postcode": "4800", "addr:street": "Szabads\u00e1g t\u00e9r", "amenity": "library", "building": "public", "name": "Bal\u00e1zs J\u00f3zsef V\u00e1rosi K\u00f6nyvt\u00e1r", "source:addr": "survey", "source:geometry": "Maxar Premium Imagery (Beta)"}}]}