{"version": 0.6, "generator": "Overpass API 0.7.59 e21c39fe", "osm3s": {"timestamp_osm_base": "2023-01-17T15:16:20Z", "copyright": "The data included in this document is from www.openstreetmap.org. The data is made available under ODbL."}, "elements": [{"type": "node", "id": 310002539, "lat": 46.071618, "lon": 18.6252669, "tags": {"amenity": "pub", "name": "Csele pressz\u00f3"}}, {"type": "node", "id": 310002718, "lat": 46.0825197, "lon": 18.6569127, "tags": {"amenity": "pub", "name": "Waszher s\u00f6r\u00f6z\u0151", "toilets:wheelchair": "yes", "wheelchair": "limited"}}, {"type": "node", "id": 1085711371, "lat": 45.9910178, "lon": 18.6682056, "tags": {"amenity": "pub", "name": "Pinocchio", "toilets:wheelchair": "yes", "wheelchair": "yes"}}, {"type": "node", "id": 1085711595, "lat": 45.9909656, "lon": 18.6687528, "tags": {"amenity": "pub"}}, {"type": "node", "id": 2391783792, "lat": 46.0854015, "lon": 18.7597221, "tags": {"amenity": "pub", "opening_hours": "closed"}}, {"type": "node", "id": 3035961607, "lat": 46.0338519, "lon": 19.2042571, "tags": {"amenity": "pub", "name": "Cuki Eszpressz\u00f3"}}, {"type": "node", "id": 3035968092, "lat": 46.034084, "lon": 19.1986813, "tags": {"amenity": "pub"}}, {"type": "node", "id": 3052574423, "lat": 46.12534, "lon": 19.1588444, "tags": {"amenity": "pub", "name": "Karamell"}}, {"type": "node", "id": 3052574426, "lat": 46.1266515, "lon": 19.1584141, "tags": {"amenity": "pub", "name": "St. Hubertus Fogad\u00f3"}}, {"type": "node", "id": 3056182397, "lat": 46.0845517, "lon": 18.770608}, {"type": "node", "id": 3056182399, "lat": 46.0845695, "lon": 18.7704954}, {"type": "node", "id": 3056182400, "lat": 46.0845696, "lon": 18.7706995}, {"type": "node", "id": 3056182402, "lat": 46.0845887, "lon": 18.7705929}, {"type": "node", "id": 3056182410, "lat": 46.0846371, "lon": 18.7704679}, {"type": "node", "id": 3056182412, "lat": 46.0846742, "lon": 18.7706569}, {"type": "node", "id": 3058087781, "lat": 46.1264814, "lon": 19.1455869}, {"type": "node", "id": 3058087782, "lat": 46.1264908, "lon": 19.1457526}, {"type": "node", "id": 3058087783, "lat": 46.1266584, "lon": 19.1455662}, {"type": "node", "id": 3058087784, "lat": 46.1266677, "lon": 19.1457319}, {"type": "node", "id": 3059317463, "lat": 46.1192218, "lon": 19.1505051, "tags": {"amenity": "pub", "name": "Hord\u00f3 S\u00f6r\u00f6z\u0151"}}, {"type": "node", "id": 3059317464, "lat": 46.1319604, "lon": 19.1593437, "tags": {"amenity": "pub", "name": "Kurta Kocsma"}}, {"type": "node", "id": 3082810201, "lat": 46.0431114, "lon": 18.9023972, "tags": {"amenity": "pub", "name": "Pressz\u00f3"}}, {"type": "node", "id": 3090629386, "lat": 46.040811, "lon": 18.8989629, "tags": {"addr:city": "Nagybaracska", "addr:country": "HU", "addr:housenumber": "51", "addr:postcode": "6527", "addr:street": "Pet\u0151fi S\u00e1ndor utca", "amenity": "pub", "name": "Horg\u00e1sz Pressz\u00f3"}}, {"type": "node", "id": 3124840074, "lat": 45.945195, "lon": 18.9358427, "tags": {"amenity": "pub", "name": "Gond\u0171z\u0151 Kocsma"}}, {"type": "node", "id": 3128319136, "lat": 45.9833224, "lon": 18.789114, "tags": {"amenity": "pub", "name": "\u0150szir\u00f3zsa Italbolt"}}, {"type": "node", "id": 3462181548, "lat": 46.125432, "lon": 18.76757, "tags": {"amenity": "pub", "source": "turistautak.hu", "source:date": "2011-09-08", "url": "http://turistautak.hu/poi.php?id=36863"}}, {"type": "node", "id": 3462181554, "lat": 46.12931, "lon": 18.77653, "tags": {"amenity": "pub", "source": "turistautak.hu", "source:date": "2011-09-08", "url": "http://turistautak.hu/poi.php?id=36869"}}, {"type": "node", "id": 3464291502, "lat": 45.995372, "lon": 18.690907, "tags": {"amenity": "pub", "name": "Jolly Joker drink b\u00e1r", "source": "turistautak.hu", "source:date": "2011-09-08", "url": "http://turistautak.hu/poi.php?id=91539"}}, {"type": "node", "id": 3464291513, "lat": 45.9894048, "lon": 18.6866281, "tags": {"amenity": "pub", "name": "Club71 s\u00f6r\u00f6z\u0151", "source": "local inspection", "source:date": "2018-12-26"}}, {"type": "node", "id": 3464291530, "lat": 45.99717, "lon": 18.689794, "tags": {"amenity": "pub", "description": "H-P: 5:30-21, Szo-V: 6:30-21", "name": "Makk 7-es italbolt", "source": "turistautak.hu", "source:date": "2011-09-08", "toilets:wheelchair": "yes", "url": "http://turistautak.hu/poi.php?id=91442", "wheelchair": "limited"}}, {"type": "node", "id": 3464291554, "lat": 45.98919, "lon": 18.68666, "tags": {"amenity": "pub", "lastcheck": "2018-12-26", "name": "R\u00e1k\u00f3czi s\u00f6r\u00f6z\u0151", "source": "turistautak.hu", "source:date": "2014-04-18", "url": "http://turistautak.hu/poi.php?id=167768"}}, {"type": "node", "id": 3464291576, "lat": 45.994411, "lon": 18.691101, "tags": {"amenity": "pub", "description": "H-Szo: 8-22, V: 10-22.", "name": "Titty-Twister s\u00f6r\u00f6z\u0151", "source": "turistautak.hu", "source:date": "2011-09-08", "url": "http://turistautak.hu/poi.php?id=91177"}}, {"type": "node", "id": 3465129802, "lat": 45.8629795, "lon": 18.7380701}, {"type": "node", "id": 3465129803, "lat": 45.8627729, "lon": 18.7379797}, {"type": "node", "id": 3465129804, "lat": 45.8629582, "lon": 18.7376822}, {"type": "node", "id": 3465129805, "lat": 45.863053, "lon": 18.7377237}, {"type": "node", "id": 3465194068, "lat": 45.8883736, "lon": 18.690626, "tags": {"amenity": "pub", "name": "Gostionica"}}, {"type": "node", "id": 3487703901, "lat": 46.143533, "lon": 18.8811159, "tags": {"amenity": "pub", "name": "M\u0171vel\u0151d\u00e9si H\u00e1z", "source": "turistautak.hu", "source:date": "2011-05-24", "url": "http://turistautak.hu/poi.php?id=118733"}}, {"type": "node", "id": 3487703924, "lat": 45.9434555, "lon": 18.8774279, "tags": {"amenity": "pub", "name": "Vegyes- \u00e9s italbolt", "source": "turistautak.hu", "source:date": "2011-06-24", "url": "http://turistautak.hu/poi.php?id=76330"}}, {"type": "node", "id": 3487703944, "lat": 46.144067, "lon": 18.8824159, "tags": {"amenity": "pub", "source": "turistautak.hu", "source:date": "2011-05-24", "url": "http://turistautak.hu/poi.php?id=118740"}}, {"type": "node", "id": 3912817857, "lat": 45.9909654, "lon": 18.6831072, "tags": {"amenity": "pub", "name": "Public House"}}, {"type": "node", "id": 3936610748, "lat": 45.9968332, "lon": 18.9244791}, {"type": "node", "id": 3936610749, "lat": 45.9967684, "lon": 18.924594}, {"type": "node", "id": 3936610750, "lat": 45.9966678, "lon": 18.9243259}, {"type": "node", "id": 3936610751, "lat": 45.9967513, "lon": 18.9242397}, {"type": "node", "id": 3936610752, "lat": 45.996804, "lon": 18.9243881}, {"type": "node", "id": 3936610753, "lat": 45.9968348, "lon": 18.9243629}, {"type": "node", "id": 3936610754, "lat": 45.996872, "lon": 18.9244485}, {"type": "node", "id": 3936610755, "lat": 45.9968495, "lon": 18.92452}, {"type": "node", "id": 4003479938, "lat": 45.9997134, "lon": 18.9123177, "tags": {"amenity": "pub", "name": "\"T\u00fczes\" kocsma"}}, {"type": "node", "id": 4348756890, "lat": 45.9909815, "lon": 18.6905898, "tags": {"amenity": "pub", "name": "Fortuna Boroz\u00f3", "outdoor_seating": "yes", "toilets:wheelchair": "yes", "wheelchair": "limited"}}, {"type": "node", "id": 4933468897, "lat": 46.1055325, "lon": 18.9896817, "tags": {"amenity": "pub", "fixme": "verify", "name": "Kugliz\u00f3 S\u00f6r\u00f6z\u0151", "source": "route4u", "toilets:wheelchair": "no", "wheelchair": "limited"}}, {"type": "node", "id": 4933469346, "lat": 46.0338181, "lon": 18.9480848, "tags": {"amenity": "pub", "fixme": "verify", "name": "Kiskulacs Vend\u00e9gl\u0151 S\u00f6r\u00f6z\u0151", "source": "route4u", "toilets:wheelchair": "no", "wheelchair": "no"}}, {"type": "node", "id": 4933469348, "lat": 46.0339412, "lon": 18.9477692, "tags": {"amenity": "pub", "fixme": "verify", "name": "Jobb Mint Otthon S\u00f6r\u00f6z\u0151", "source": "route4u", "toilets:wheelchair": "no", "wheelchair": "no"}}, {"type": "node", "id": 4933469353, "lat": 46.0345813, "lon": 19.041259, "tags": {"amenity": "pub", "fixme": "verify", "name": "Stop Italbolt", "source": "route4u", "toilets:wheelchair": "no", "wheelchair": "no"}}, {"type": "node", "id": 4933469354, "lat": 46.0355752, "lon": 19.046713, "tags": {"amenity": "pub", "fixme": "verify", "name": "F\u00fcst\u00f6s Kocsma", "source": "route4u", "toilets:wheelchair": "no", "wheelchair": "no"}}, {"type": "node", "id": 4933469356, "lat": 46.0365174, "lon": 18.9416882, "tags": {"amenity": "pub", "fixme": "verify", "name": "Hangulat S\u00f6r\u00f6z\u0151", "source": "route4u"}}, {"type": "node", "id": 4933469358, "lat": 46.0366575, "lon": 19.0346546, "tags": {"amenity": "pub", "fixme": "verify", "name": "Sarok S\u00f6r\u00f6z\u0151", "opening_hours": "Mo-Fr 08:00-11:00,14:00-18:00; Sa 08:00-12:00", "operator": "K\u00fchn Antal", "ref": "6/1997 \u00d6nk.nyilv\u00e1ntart\u00e1si sz\u00e1m", "source": "route4u", "start_date": "1997", "toilets:wheelchair": "no", "wheelchair": "no"}}, {"type": "node", "id": 4933469372, "lat": 46.106243, "lon": 18.9780933, "tags": {"amenity": "pub", "fixme": "verify", "name": "Aroma", "source": "route4u", "toilets:wheelchair": "limited", "wheelchair": "limited"}}, {"type": "node", "id": 4933469384, "lat": 46.1133604, "lon": 18.9867215, "tags": {"amenity": "pub", "name": "Liget S\u00f6r\u00f6z\u0151", "source": "route4u", "toilets:wheelchair": "limited", "wheelchair": "no"}}, {"type": "node", "id": 4939178040, "lat": 46.1264147, "lon": 19.1623859, "tags": {"amenity": "pub", "fixme": "verify", "name": "Sarki S\u00f6r\u00f6z\u0151", "source": "route4u", "toilets:wheelchair": "no", "wheelchair": "no"}}, {"type": "node", "id": 4939178105, "lat": 45.9909728, "lon": 18.68974, "tags": {"amenity": "pub", "fixme": "verify", "name": "Street Cafe and B\u00e1r", "source": "route4u", "toilets:wheelchair": "yes", "wheelchair": "yes"}}, {"type": "node", "id": 4940559129, "lat": 46.0814159, "lon": 18.657831, "tags": {"amenity": "pub", "fixme": "verify", "name": "\u00d6reg Kocsma", "source": "route4u", "toilets:wheelchair": "yes", "wheelchair": "limited"}}, {"type": "node", "id": 4940563402, "lat": 45.9416521, "lon": 18.6317872, "tags": {"amenity": "pub", "fixme": "verify", "name": "H\u00e1rsfa S\u00f6r\u00f6z\u0151", "source": "route4u", "toilets:wheelchair": "yes", "wheelchair": "yes"}}, {"type": "node", "id": 5230113502, "lat": 45.9904471, "lon": 18.6964338}, {"type": "node", "id": 5230113503, "lat": 45.9904247, "lon": 18.6963782}, {"type": "node", "id": 5230113510, "lat": 45.9904778, "lon": 18.6963017}, {"type": "node", "id": 5230113511, "lat": 45.9903814, "lon": 18.6964841}, {"type": "node", "id": 5230113512, "lat": 45.9903241, "lon": 18.69635}, {"type": "node", "id": 5230113513, "lat": 45.9904177, "lon": 18.6962152}, {"type": "node", "id": 6300033463, "lat": 45.8629113, "lon": 18.7379033}, {"type": "node", "id": 6300033464, "lat": 45.8627994, "lon": 18.7378544}, {"type": "node", "id": 6470635672, "lat": 46.1072655, "lon": 18.9254741, "tags": {"amenity": "pub"}}, {"type": "node", "id": 6470635673, "lat": 46.1044198, "lon": 18.9215251, "tags": {"amenity": "pub", "name": "Las Vegas"}}, {"type": "node", "id": 8951785417, "lat": 46.1406649, "lon": 18.8766344, "tags": {"addr:city": "Szeremle", "addr:housenumber": "86", "addr:postcode": "6512", "addr:street": "D\u00f3zsa Gy\u00f6rgy utca", "amenity": "pub", "name": "Piccolo"}}, {"type": "way", "id": 301554131, "nodes": [3056182412, 3056182400, 3056182397, 3056182402, 3056182399, 3056182410, 3056182412], "tags": {"amenity": "pub", "building": "yes", "name": "Fodor"}}, {"type": "way", "id": 301718348, "nodes": [3058087783, 3058087784, 3058087782, 3058087781, 3058087783], "tags": {"amenity": "pub", "building": "yes", "name": "Csal\u00f3ka Cs\u00e1rda"}}, {"type": "way", "id": 339329211, "nodes": [3465129802, 3465129803, 6300033464, 6300033463, 3465129804, 3465129805, 3465129802], "tags": {"amenity": "pub", "building": "yes", "name": "New Inn", "smoking": "outside"}}, {"type": "way", "id": 390521692, "nodes": [3936610748, 3936610755, 3936610749, 3936610750, 3936610751, 3936610752, 3936610753, 3936610754, 3936610748], "tags": {"addr:city": "D\u00e1vod", "addr:housenumber": "1/A", "addr:postcode": "6524", "addr:street": "Zombori utca", "amenity": "pub", "building": "yes", "name": "Bosszant\u00f3 bet\u00e9r\u0151", "opening_hours": "Su-Th 07:00-23:00; Fr-Sa 07:00-04:00"}}, {"type": "way", "id": 540665623, "nodes": [5230113513, 5230113510, 5230113503, 5230113502, 5230113511, 5230113512, 5230113513], "tags": {"amenity": "pub", "building": "yes", "name": "Vad\u00e1szk\u00fcrt italbolt", "source": "turistautak.hu", "source:date": "2013-02-11", "url": "http://turistautak.hu/poi.php?id=150516"}}]}